$GNGGA,175958.60,4856.80249,N,00229.88141,E,1,12,0.77,42.5,M,46.2,M,,*76
$GNRMC,175958.80,A,4856.80250,N,00229.88141,E,0.088,,060721,,,A*6E
$GNGGA,175958.80,4856.80250,N,00229.88141,E,1,12,0.82,42.4,M,46.2,M,,*7B
$GNRMC,175959.00,A,4856.80250,N,00229.88141,E,0.009,,060721,,,A*6E
$GNGGA,175959.00,4856.80250,N,00229.88141,E,1,12,0.77,42.4,M,46.2,M,,*78
$GNTXT,01,01,02,u-blox AG - www.u-blox.com*4E
$GNTXT,01,01,02,HW UBX-M8030 00080000*60
$GNTXT,01,01,02,ROM CORE 3.01 (107888)*2B
$GNTXT,01,01,02,FWVER=SPG 3.01*46
$GNTXT,01,01,02,PROTVER=18.00*11
$GNTXT,01,01,02,GPS;GLO;GAL;BDS*77
$GNTXT,01,01,02,SBAS;IMES;QZSS*49
$GNTXT,01,01,02,GNSS OTP=GPS;GLO*37
$GNTXT,01,01,02,LLC=FFFFFFFF-FFFFFFFF-FFFFFFFF-FFFFFFFF-FFFFFFFD*2F
$GNTXT,01,01,02,ANTSUPERV=AC SD PDoS SR*3E
$GNTXT,01,01,02,ANTSTATUS=OK*25
$GNTXT,01,01,02,PF=3FF*4B
$GNRMC,175959.20,A,4856.80251,N,00229.88142,E,0.024,,060721,,,A*61
$GNGGA,175959.20,4856.80251,N,00229.88142,E,1,12,0.77,42.4,M,46.2,M,,*78
$GNGGA,175959.40,4856.80252,N,00229.88143,E,1,12,0.77,42.3,M,46.2,M,,*7B
$GNRMC,175959.60,A,4856.80252,N,00229.88143,E,0.076,,060721,,,A*60
$GNGGA,175959.60,4856.80252,N,00229.88143,E,1,12,0.77,42.3,M,46.2,M,,*79
$GNRMC,175959.80,A,4856.80254,N,00229.88143,E,0.105,,060721,,,A*6D
$GNGGA,175959.80,4856.80254,N,00229.88143,E,1,12,0.77,42.3,M,46.2,M,,*71
$GNRMC,180000.00,A,4856.80254,N,00229.88145,E,0.066,,060721,,,A*68
$GNGGA,180000.00,4856.80254,N,00229.88145,E,1,12,0.77,42.3,M,46.2,M,,*70
$GNRMC,180000.20,A,4856.80254,N,00229.88145,E,0.065,,060721,,,A*69
$GNGGA,180000.20,4856.80254,N,00229.88145,E,1,12,0.77,42.3,M,46.2,M,,*72
$GNRMC,180000.40,A,4856.80254,N,00229.88145,E,0.050,,060721,,,A*69
$GNGGA,180000.40,4856.80254,N,00229.88145,E,1,12,0.77,42.3,M,46.2,M,,*74
$GNRMC,180000.60,A,4856.80255,N,00229.88146,E,0.100,,060721,,,A*6D
$GNGGA,180000.60,4856.80255,N,00229.88146,E,1,12,0.77,42.3,M,46.2,M,,*74
$GNRMC,180000.80,A,4856.80255,N,00229.88146,E,0.016,,060721,,,A*65
$GNGGA,180000.80,4856.80255,N,00229.88146,E,1,12,0.77,42.2,M,46.2,M,,*7B
$GNRMC,180001.00,A,4856.80255,N,00229.88147,E,0.073,,060721,,,A*6E
$GNGGA,180001.00,4856.80255,N,00229.88147,E,1,12,0.77,42.2,M,46.2,M,,*73
$GNRMC,180001.20,A,4856.80255,N,00229.88146,E,0.089,,060721,,,A*68
$GNGGA,180001.20,4856.80255,N,00229.88146,E,1,12,0.77,42.2,M,46.2,M,,*70
$GNRMC,180001.40,A,4856.80255,N,00229.88147,E,0.061,,060721,,,A*69
$GNGGA,180001.40,4856.80255,N,00229.88147,E,1,12,0.77,42.2,M,46.2,M,,*77
$GNRMC,180001.60,A,4856.80255,N,00229.88147,E,0.026,,060721,,,A*68
$GNGGA,180001.60,4856.80255,N,00229.88147,E,1,12,0.77,42.2,M,46.2,M,,*75
$GNRMC,180001.80,A,4856.80255,N,00229.88146,E,0.076,,060721,,,A*62
$GNGGA,180001.80,4856.80255,N,00229.88146,E,1,12,0.77,42.2,M,46.2,M,,*7A
$GNRMC,180002.00,A,4856.80255,N,00229.88146,E,0.022,,060721,,,A*68
$GNGGA,180002.00,4856.80255,N,00229.88146,E,1,12,0.77,42.1,M,46.2,M,,*72
$GNRMC,180002.20,A,4856.80255,N,00229.88147,E,0.039,,060721,,,A*61
$GNGGA,180002.20,4856.80255,N,00229.88147,E,1,12,0.77,42.0,M,46.2,M,,*70
$GNRMC,180002.40,A,4856.80255,N,00229.88146,E,0.012,,060721,,,A*6F
$GNGGA,180002.40,4856.80255,N,00229.88146,E,1,12,0.77,42.0,M,46.2,M,,*77
$GNRMC,180002.60,A,4856.80255,N,00229.88146,E,0.043,,060721,,,A*69
$GNGGA,180002.60,4856.80255,N,00229.88146,E,1,12,0.77,41.9,M,46.2,M,,*7F
$GNRMC,180002.80,A,4856.80255,N,00229.88146,E,0.019,,060721,,,A*68
$GNGGA,180002.80,4856.80255,N,00229.88146,E,1,12,0.77,41.9,M,46.2,M,,*71
$GNRMC,180003.00,A,4856.80255,N,00229.88145,E,0.031,,060721,,,A*68
$GNGGA,180003.00,4856.80255,N,00229.88145,E,1,12,0.77,41.9,M,46.2,M,,*7B
$GNRMC,180003.20,A,4856.80255,N,00229.88146,E,0.043,,060721,,,A*6C
$GNGGA,180003.20,4856.80255,N,00229.88146,E,1,12,0.74,41.8,M,46.2,M,,*78
$GNTXT,01,01,01,PUBX 40 unknown msg*7A
$GNRMC,180003.40,A,4856.80254,N,00229.88145,E,0.096,,060721,,,A*60
$GNGGA,180003.40,4856.80254,N,00229.88145,E,1,12,0.74,41.8,M,46.2,M,,*7C
$GNRMC,180003.60,A,4856.80255,N,00229.88145,E,0.031,,060721,,,A*6E
$GNGGA,180003.60,4856.80255,N,00229.88145,E,1,12,0.74,41.8,M,46.2,M,,*7F
$GNRMC,180003.80,A,4856.80254,N,00229.88145,E,0.043,,060721,,,A*64
$GNGGA,180003.80,4856.80254,N,00229.88145,E,1,12,0.74,41.8,M,46.2,M,,*70
$GNRMC,180004.00,A,4856.80253,N,00229.88144,E,0.036,,060721,,,A*6F
$GNGGA,180004.00,4856.80253,N,00229.88144,E,1,12,0.74,41.7,M,46.2,M,,*76
$GNRMC,180004.20,A,4856.80253,N,00229.88144,E,0.082,,060721,,,A*62
$GNGGA,180004.20,4856.80253,N,00229.88144,E,1,12,0.74,41.7,M,46.2,M,,*74
$GNRMC,180004.40,A,4856.80252,N,00229.88143,E,0.103,,060721,,,A*6A
$GNGGA,180004.40,4856.80252,N,00229.88143,E,1,12,0.74,41.7,M,46.2,M,,*74
$GNRMC,180004.60,A,4856.80253,N,00229.88143,E,0.009,,060721,,,A*62
$GNGGA,180004.60,4856.80253,N,00229.88143,E,1,12,0.74,41.7,M,46.2,M,,*77
$GNRMC,180004.80,A,4856.80253,N,00229.88145,E,0.066,,060721,,,A*63
$GNGGA,180004.80,4856.80253,N,00229.88145,E,1,12,0.74,41.7,M,46.2,M,,*7F
$GNRMC,180005.00,A,4856.80253,N,00229.88145,E,0.017,,060721,,,A*6C
$GNGGA,180005.00,4856.80253,N,00229.88145,E,1,12,0.74,41.7,M,46.2,M,,*76
$GNRMC,180005.20,A,4856.80253,N,00229.88146,E,0.087,,060721,,,A*64
$GNGGA,180005.20,4856.80253,N,00229.88146,E,1,12,0.74,41.7,M,46.2,M,,*77
$GNRMC,180005.40,A,4856.80253,N,00229.88146,E,0.036,,060721,,,A*68
$GNGGA,180005.40,4856.80253,N,00229.88146,E,1,12,0.74,41.7,M,46.2,M,,*71
$GNRMC,180005.60,A,4856.80253,N,00229.88146,E,0.051,,060721,,,A*6B
$GNGGA,180005.60,4856.80253,N,00229.88146,E,1,12,0.74,41.7,M,46.2,M,,*73
$GNRMC,180005.80,A,4856.80252,N,00229.88146,E,0.066,,060721,,,A*60
$GNGGA,180005.80,4856.80252,N,00229.88146,E,1,12,0.74,41.7,M,46.2,M,,*7C
$GNRMC,180006.00,A,4856.80253,N,00229.88147,E,0.110,,060721,,,A*6B
$GNGGA,180006.00,4856.80253,N,00229.88147,E,1,12,0.74,41.6,M,46.2,M,,*76
$GNRMC,180006.20,A,4856.80253,N,00229.88147,E,0.014,,060721,,,A*6C
$GNGGA,180006.20,4856.80253,N,00229.88147,E,1,12,0.74,41.7,M,46.2,M,,*75
$GNRMC,180006.40,A,4856.80253,N,00229.88147,E,0.037,,060721,,,A*6B
$GNGGA,180006.40,4856.80253,N,00229.88147,E,1,12,0.74,41.7,M,46.2,M,,*73
$GNRMC,180006.60,A,4856.80253,N,00229.88146,E,0.046,,060721,,,A*6E
$GNGGA,180006.60,4856.80253,N,00229.88146,E,1,12,0.74,41.6,M,46.2,M,,*71
$GNRMC,180006.80,A,4856.80252,N,00229.88145,E,0.113,,060721,,,A*63
$GNGGA,180006.80,4856.80252,N,00229.88145,E,1,12,0.74,41.6,M,46.2,M,,*7D
$GNRMC,180007.00,A,4856.80252,N,00229.88145,E,0.036,,060721,,,A*6C
$GNGGA,180007.00,4856.80252,N,00229.88145,E,1,12,0.74,41.6,M,46.2,M,,*74
$GNRMC,180007.20,A,4856.80252,N,00229.88146,E,0.046,,060721,,,A*6A
$GNGGA,180007.20,4856.80252,N,00229.88146,E,1,12,0.74,41.6,M,46.2,M,,*75
$GNRMC,180007.40,A,4856.80252,N,00229.88146,E,0.027,,060721,,,A*6B
$GNGGA,180007.40,4856.80252,N,00229.88146,E,1,12,0.74,41.6,M,46.2,M,,*73
$GNRMC,180007.60,A,4856.80252,N,00229.88147,E,0.054,,060721,,,A*6C
$GNGGA,180007.60,4856.80252,N,00229.88147,E,1,12,0.74,41.6,M,46.2,M,,*70
$GNRMC,180007.80,A,4856.80252,N,00229.88147,E,0.033,,060721,,,A*63
$GNGGA,180007.80,4856.80252,N,00229.88147,E,1,12,0.74,41.6,M,46.2,M,,*7E
$GNRMC,180008.00,A,4856.80252,N,00229.88146,E,0.032,,060721,,,A*64
$GNGGA,180008.00,4856.80252,N,00229.88146,E,1,12,0.77,41.6,M,46.2,M,,*7B
$GNRMC,180008.20,A,4856.80251,N,00229.88146,E,0.078,,060721,,,A*6B
$GNGGA,180008.20,4856.80251,N,00229.88146,E,1,12,0.77,41.5,M,46.2,M,,*79
$GNRMC,180008.40,A,4856.80252,N,00229.88146,E,0.043,,060721,,,A*66
$GNGGA,180008.40,4856.80252,N,00229.88146,E,1,12,0.74,41.5,M,46.2,M,,*7F
$GNRMC,180008.60,A,4856.80251,N,00229.88146,E,0.027,,060721,,,A*65
$GNGGA,180008.60,4856.80251,N,00229.88146,E,1,12,0.74,41.5,M,46.2,M,,*7E
$GNRMC,180008.80,A,4856.80251,N,00229.88145,E,0.024,,060721,,,A*6B
$GNGGA,180008.80,4856.80251,N,00229.88145,E,1,12,0.74,41.5,M,46.2,M,,*73
$GNRMC,180009.00,A,4856.80251,N,00229.88146,E,0.091,,060721,,,A*6F
$GNGGA,180009.00,4856.80251,N,00229.88146,E,1,12,0.74,41.5,M,46.2,M,,*79
$GNRMC,180009.20,A,4856.80251,N,00229.88146,E,0.027,,060721,,,A*60
$GNGGA,180009.20,4856.80251,N,00229.88146,E,1,12,0.74,41.5,M,46.2,M,,*7B
$GNRMC,180009.40,A,4856.80251,N,00229.88145,E,0.080,,060721,,,A*68
$GNGGA,180009.40,4856.80251,N,00229.88145,E,1,12,0.74,41.5,M,46.2,M,,*7E
$GNRMC,180009.60,A,4856.80251,N,00229.88145,E,0.039,,060721,,,A*68
$GNGGA,180009.60,4856.80251,N,00229.88145,E,1,12,0.74,41.5,M,46.2,M,,*7C
$GNRMC,180009.80,A,4856.80252,N,00229.88143,E,0.104,,060721,,,A*6C
$GNGGA,180009.80,4856.80252,N,00229.88143,E,1,12,0.74,41.5,M,46.2,M,,*77
$GNRMC,180010.00,A,4856.80252,N,00229.88144,E,0.042,,060721,,,A*68
$GNGGA,180010.00,4856.80252,N,00229.88144,E,1,12,0.74,41.4,M,46.2,M,,*71
$GNRMC,180010.20,A,4856.80252,N,00229.88143,E,0.061,,060721,,,A*6C
$GNGGA,180010.20,4856.80252,N,00229.88143,E,1,12,0.74,41.4,M,46.2,M,,*74
$GNRMC,180010.40,A,4856.80252,N,00229.88142,E,0.091,,060721,,,A*64
$GNGGA,180010.40,4856.80252,N,00229.88142,E,1,12,0.74,41.4,M,46.2,M,,*73
$GNRMC,180010.60,A,4856.80254,N,00229.88141,E,0.119,,060721,,,A*62
$GNGGA,180010.60,4856.80254,N,00229.88141,E,1,12,0.74,41.4,M,46.2,M,,*74
$GNRMC,180010.80,A,4856.80253,N,00229.88141,E,0.071,,060721,,,A*64
$GNGGA,180010.80,4856.80253,N,00229.88141,E,1,12,0.82,41.4,M,46.2,M,,*74
$GNRMC,180011.00,A,4856.80254,N,00229.88141,E,0.039,,060721,,,A*66
$GNGGA,180011.00,4856.80254,N,00229.88141,E,1,12,0.74,41.5,M,46.2,M,,*72
$GNRMC,180011.20,A,4856.80253,N,00229.88140,E,0.100,,060721,,,A*69
$GNGGA,180011.20,4856.80253,N,00229.88140,E,1,12,0.74,41.5,M,46.2,M,,*76
$GNRMC,180011.40,A,4856.80253,N,00229.88140,E,0.110,,060721,,,A*6E
$GNGGA,180011.40,4856.80253,N,00229.88140,E,1,12,0.74,41.5,M,46.2,M,,*70
$GNRMC,180011.60,A,4856.80253,N,00229.88140,E,0.066,,060721,,,A*6C
$GNGGA,180011.60,4856.80253,N,00229.88140,E,1,12,0.74,41.5,M,46.2,M,,*72
$GNRMC,180011.80,A,4856.80252,N,00229.88138,E,0.110,,060721,,,A*6C
$GNGGA,180011.80,4856.80252,N,00229.88138,E,1,12,0.74,41.4,M,46.2,M,,*73
$GNRMC,180012.00,A,4856.80252,N,00229.88139,E,0.012,,060721,,,A*65
$GNGGA,180012.00,4856.80252,N,00229.88139,E,1,12,0.74,41.4,M,46.2,M,,*79
$GNRMC,180012.20,A,4856.80251,N,00229.88139,E,0.103,,060721,,,A*65
$GNGGA,180012.20,4856.80251,N,00229.88139,E,1,12,0.74,41.4,M,46.2,M,,*78
$GNRMC,180012.40,A,4856.80251,N,00229.88138,E,0.052,,060721,,,A*67
$GNGGA,180012.40,4856.80251,N,00229.88138,E,1,12,0.74,41.4,M,46.2,M,,*7F
$GNRMC,180012.60,A,4856.80251,N,00229.88138,E,0.054,,060721,,,A*63
$GNGGA,180012.60,4856.80251,N,00229.88138,E,1,12,0.82,41.4,M,46.2,M,,*74
$GNRMC,180012.80,A,4856.80251,N,00229.88140,E,0.065,,060721,,,A*60
$GNGGA,180012.80,4856.80251,N,00229.88140,E,1,12,0.82,41.4,M,46.2,M,,*75
$GNRMC,180013.00,A,4856.80251,N,00229.88141,E,0.034,,060721,,,A*6C
$GNGGA,180013.00,4856.80251,N,00229.88141,E,1,12,0.82,41.5,M,46.2,M,,*7C
$GNRMC,180013.20,A,4856.80251,N,00229.88143,E,0.085,,060721,,,A*66
$GNGGA,180013.20,4856.80251,N,00229.88143,E,1,12,0.82,41.5,M,46.2,M,,*7C
$GNRMC,180013.40,A,4856.80251,N,00229.88144,E,0.090,,060721,,,A*63
$GNGGA,180013.40,4856.80251,N,00229.88144,E,1,12,0.82,41.5,M,46.2,M,,*7D
$GNRMC,180013.60,A,4856.80251,N,00229.88144,E,0.050,,060721,,,A*6D
$GNGGA,180013.60,4856.80251,N,00229.88144,E,1,12,0.74,41.5,M,46.2,M,,*76
$GNRMC,180013.80,A,4856.80251,N,00229.88144,E,0.077,,060721,,,A*66
$GNGGA,180013.80,4856.80251,N,00229.88144,E,1,12,0.74,41.5,M,46.2,M,,*78
$GNRMC,180014.00,A,4856.80251,N,00229.88145,E,0.038,,060721,,,A*63
$GNGGA,180014.00,4856.80251,N,00229.88145,E,1,12,0.74,41.6,M,46.2,M,,*75
$GNRMC,180014.20,A,4856.80251,N,00229.88145,E,0.070,,060721,,,A*6D
$GNGGA,180014.20,4856.80251,N,00229.88145,E,1,12,0.74,41.6,M,46.2,M,,*77
$GNRMC,180014.40,A,4856.80250,N,00229.88145,E,0.045,,060721,,,A*6C
$GNGGA,180014.40,4856.80250,N,00229.88145,E,1,12,0.74,41.6,M,46.2,M,,*70
$GNRMC,180014.60,A,4856.80251,N,00229.88146,E,0.038,,060721,,,A*66
$GNGGA,180014.60,4856.80251,N,00229.88146,E,1,12,0.74,41.6,M,46.2,M,,*70
$GNRMC,180014.80,A,4856.80250,N,00229.88148,E,0.083,,060721,,,A*67
$GNGGA,180014.80,4856.80250,N,00229.88148,E,1,12,0.74,41.6,M,46.2,M,,*71
$GNRMC,180015.00,A,4856.80250,N,00229.88148,E,0.028,,060721,,,A*6F
$GNGGA,180015.00,4856.80250,N,00229.88148,E,1,12,0.74,41.6,M,46.2,M,,*78
$GNRMC,180015.20,A,4856.80250,N,00229.88146,E,0.061,,060721,,,A*6E
$GNGGA,180015.20,4856.80250,N,00229.88146,E,1,12,0.82,41.6,M,46.2,M,,*7D
$GNRMC,180015.40,A,4856.80251,N,00229.88148,E,0.093,,060721,,,A*6A
$GNGGA,180015.40,4856.80251,N,00229.88148,E,1,12,0.82,41.6,M,46.2,M,,*74
$GNRMC,180015.60,A,4856.80250,N,00229.88148,E,0.046,,060721,,,A*61
$GNGGA,180015.60,4856.80250,N,00229.88148,E,1,12,0.74,41.7,M,46.2,M,,*7F
$GNRMC,180015.80,A,4856.80251,N,00229.88148,E,0.098,,060721,,,A*6D
$GNGGA,180015.80,4856.80251,N,00229.88148,E,1,12,0.74,41.6,M,46.2,M,,*71
$GNRMC,180016.00,A,4856.80251,N,00229.88149,E,0.075,,060721,,,A*64
$GNGGA,180016.00,4856.80251,N,00229.88149,E,1,12,0.74,41.6,M,46.2,M,,*7B
$GNRMC,180016.20,A,4856.80251,N,00229.88149,E,0.051,,060721,,,A*60
$GNGGA,180016.20,4856.80251,N,00229.88149,E,1,12,0.74,41.7,M,46.2,M,,*78
$GNRMC,180016.40,A,4856.80251,N,00229.88149,E,0.057,,060721,,,A*60
$GNGGA,180016.40,4856.80251,N,00229.88149,E,1,12,0.74,41.7,M,46.2,M,,*7E
$GNRMC,180016.60,A,4856.80251,N,00229.88150,E,0.071,,060721,,,A*6E
$GNGGA,180016.60,4856.80251,N,00229.88150,E,1,12,0.74,41.7,M,46.2,M,,*74
$GNRMC,180016.80,A,4856.80251,N,00229.88151,E,0.046,,060721,,,A*65
$GNGGA,180016.80,4856.80251,N,00229.88151,E,1,12,0.89,41.7,M,46.2,M,,*79
$GNRMC,180017.00,A,4856.80250,N,00229.88151,E,0.079,,060721,,,A*61
$GNGGA,180017.00,4856.80250,N,00229.88151,E,1,12,0.74,41.7,M,46.2,M,,*73
$GNRMC,180017.20,A,4856.80250,N,00229.88152,E,0.047,,060721,,,A*6D
$GNGGA,180017.20,4856.80250,N,00229.88152,E,1,12,0.74,41.8,M,46.2,M,,*7D
$GNRMC,180017.40,A,4856.80249,N,00229.88155,E,0.094,,060721,,,A*6A
$GNGGA,180017.40,4856.80249,N,00229.88155,E,1,12,0.70,41.8,M,46.2,M,,*70
$GNRMC,180017.60,A,4856.80250,N,00229.88157,E,0.064,,060721,,,A*6D
$GNGGA,180017.60,4856.80250,N,00229.88157,E,1,12,0.70,41.9,M,46.2,M,,*79
$GNRMC,180017.80,A,4856.80248,N,00229.88158,E,0.105,,060721,,,A*63
$GNGGA,180017.80,4856.80248,N,00229.88158,E,1,12,0.70,41.9,M,46.2,M,,*71
$GNRMC,180018.00,A,4856.80248,N,00229.88159,E,0.022,,060721,,,A*61
$GNGGA,180018.00,4856.80248,N,00229.88159,E,1,12,0.70,42.0,M,46.2,M,,*7D
$GNRMC,180018.20,A,4856.80247,N,00229.88161,E,0.085,,060721,,,A*6A
$GNGGA,180018.20,4856.80247,N,00229.88161,E,1,12,0.70,42.0,M,46.2,M,,*7B
$GNRMC,180018.40,A,4856.80247,N,00229.88162,E,0.048,,060721,,,A*6E
$GNGGA,180018.40,4856.80247,N,00229.88162,E,1,12,0.70,42.0,M,46.2,M,,*7E
$GNRMC,180018.60,A,4856.80247,N,00229.88161,E,0.032,,060721,,,A*62
$GNGGA,180018.60,4856.80247,N,00229.88161,E,1,12,0.70,42.1,M,46.2,M,,*7E
$GNRMC,180018.80,A,4856.80247,N,00229.88160,E,0.054,,060721,,,A*6D
$GNGGA,180018.80,4856.80247,N,00229.88160,E,1,12,0.70,42.1,M,46.2,M,,*71
$GNRMC,180019.00,A,4856.80247,N,00229.88159,E,0.033,,060721,,,A*6F
$GNGGA,180019.00,4856.80247,N,00229.88159,E,1,12,0.70,42.1,M,46.2,M,,*72
$GNRMC,180019.20,A,4856.80247,N,00229.88158,E,0.062,,060721,,,A*68
$GNGGA,180019.20,4856.80247,N,00229.88158,E,1,12,0.70,42.1,M,46.2,M,,*71
$GNRMC,180019.40,A,4856.80247,N,00229.88157,E,0.143,,060721,,,A*63
$GNGGA,180019.40,4856.80247,N,00229.88157,E,1,12,0.70,42.1,M,46.2,M,,*78
$GNRMC,180019.60,A,4856.80248,N,00229.88157,E,0.076,,060721,,,A*69
$GNGGA,180019.60,4856.80248,N,00229.88157,E,1,12,0.70,42.2,M,46.2,M,,*76
$GNRMC,180019.80,A,4856.80248,N,00229.88158,E,0.062,,060721,,,A*6D
$GNGGA,180019.80,4856.80248,N,00229.88158,E,1,12,0.77,42.3,M,46.2,M,,*71
$GNRMC,180020.00,A,4856.80249,N,00229.88159,E,0.061,,060721,,,A*6C
$GNGGA,180020.00,4856.80249,N,00229.88159,E,1,12,0.70,42.3,M,46.2,M,,*74
$GNRMC,180020.20,A,4856.80249,N,00229.88162,E,0.145,,060721,,,A*61
$GNGGA,180020.20,4856.80249,N,00229.88162,E,1,12,0.70,42.3,M,46.2,M,,*7E
$GNRMC,180020.40,A,4856.80250,N,00229.88163,E,0.071,,060721,,,A*68
$GNGGA,180020.40,4856.80250,N,00229.88163,E,1,12,0.70,42.4,M,46.2,M,,*76
$GNRMC,180020.60,A,4856.80250,N,00229.88170,E,0.287,,060721,,,A*63
$GNGGA,180020.60,4856.80250,N,00229.88170,E,1,12,0.70,42.5,M,46.2,M,,*77
$GNRMC,180020.80,A,4856.80250,N,00229.88177,E,0.317,,060721,,,A*62
$GNGGA,180020.80,4856.80250,N,00229.88177,E,1,12,0.70,42.6,M,46.2,M,,*7D
$GNRMC,180021.00,A,4856.80251,N,00229.88174,E,0.132,,060721,,,A*6C
$GNGGA,180021.00,4856.80251,N,00229.88174,E,1,12,0.70,42.6,M,46.2,M,,*76
