$GNGGA,181541.20,4856.79924,N,00229.87684,E,1,12,0.90,42.8,M,46.2,M,,*7E
$GNRMC,181541.40,A,4856.79923,N,00229.87684,E,0.090,,060721,,,A*6C
$GNGGA,181541.40,4856.79923,N,00229.87684,E,1,12,0.90,42.8,M,46.2,M,,*7F
$GNRMC,181541.60,A,4856.79922,N,00229.87684,E,0.025,,060721,,,A*61
$GNGGA,181541.60,4856.79922,N,00229.87684,E,1,12,0.90,42.8,M,46.2,M,,*7C
$GNRMC,181541.80,A,4856.79921,N,00229.87685,E,0.131,,060721,,,A*69
$GNGGA,181541.80,4856.79921,N,00229.87685,E,1,12,0.90,42.8,M,46.2,M,,*70
$GNGGA,181542.00,4856.79920,N,00229.87684,E,1,12,0.90,42.8,M,46.2,M,,*7B
$GNRMC,181542.20,A,4856.79920,N,00229.87685,E,0.098,,060721,,,A*63
$GNGGA,181542.20,4856.79920,N,00229.87685,E,1,12,0.90,42.8,M,46.2,M,,*78
$GNRMC,181542.40,A,4856.79919,N,00229.87686,E,0.130,,060721,,,A*6F
$GNGGA,181542.40,4856.79919,N,00229.87686,E,1,12,0.90,42.8,M,46.2,M,,*77
$GNRMC,181542.60,A,4856.79918,N,00229.87686,E,0.164,,060721,,,A*6D
$GNGGA,181542.60,4856.79918,N,00229.87686,E,1,12,0.90,42.8,M,46.2,M,,*74
$GNRMC,181542.80,A,4856.79917,N,00229.87687,E,0.149,,060721,,,A*62
$GNGGA,181542.80,4856.79917,N,00229.87687,E,1,12,0.90,42.8,M,46.2,M,,*74
$GNRMC,181543.00,A,4856.79918,N,00229.87689,E,0.024,,060721,,,A*60
$GNGGA,181543.00,4856.79918,N,00229.87689,E,1,12,0.90,42.8,M,46.2,M,,*7C
$GNRMC,181543.20,A,4856.79918,N,00229.87689,E,0.019,,060721,,,A*6C
$GNGGA,181543.20,4856.79918,N,00229.87689,E,1,12,0.90,42.8,M,46.2,M,,*7E
$GNRMC,181543.40,A,4856.79918,N,00229.87690,E,0.093,,060721,,,A*60
$GNGGA,181543.40,4856.79918,N,00229.87690,E,1,12,0.90,42.8,M,46.2,M,,*70
$GNRMC,181543.60,A,4856.79918,N,00229.87691,E,0.076,,060721,,,A*68
$GNGGA,181543.60,4856.79918,N,00229.87691,E,1,12,0.90,42.8,M,46.2,M,,*73
$GNRMC,181543.80,A,4856.79917,N,00229.87691,E,0.006,,060721,,,A*6E
$GNGGA,181543.80,4856.79917,N,00229.87691,E,1,12,0.90,42.8,M,46.2,M,,*72
$GNRMC,181544.00,A,4856.79917,N,00229.87692,E,0.053,,060721,,,A*62
$GNGGA,181544.00,4856.79917,N,00229.87692,E,1,12,0.90,42.8,M,46.2,M,,*7E
$GNRMC,181544.20,A,4856.79918,N,00229.87695,E,0.095,,060721,,,A*62
$GNGGA,181544.20,4856.79918,N,00229.87695,E,1,12,0.90,42.8,M,46.2,M,,*74
$GNRMC,181544.40,A,4856.79918,N,00229.87695,E,0.108,,060721,,,A*61
$GNGGA,181544.40,4856.79918,N,00229.87695,E,1,12,0.90,42.8,M,46.2,M,,*72
$GNRMC,181544.60,A,4856.79919,N,00229.87699,E,0.072,,060721,,,A*62
$GNGGA,181544.60,4856.79919,N,00229.87699,E,1,12,0.83,42.9,M,46.2,M,,*7E
$GNRMC,181544.80,A,4856.79919,N,00229.87698,E,0.112,,060721,,,A*6A
$GNGGA,181544.80,4856.79919,N,00229.87698,E,1,12,0.83,42.8,M,46.2,M,,*70
$GNRMC,181545.00,A,4856.79918,N,00229.87698,E,0.117,,060721,,,A*67
$GNGGA,181545.00,4856.79918,N,00229.87698,E,1,12,0.83,42.8,M,46.2,M,,*78
$GNRMC,181545.20,A,4856.79917,N,00229.87698,E,0.072,,060721,,,A*68
$GNGGA,181545.20,4856.79917,N,00229.87698,E,1,12,0.83,42.8,M,46.2,M,,*75
$GNRMC,181545.40,A,4856.79916,N,00229.87698,E,0.078,,060721,,,A*65
$GNGGA,181545.40,4856.79916,N,00229.87698,E,1,12,0.83,42.8,M,46.2,M,,*72
$GNRMC,181545.60,A,4856.79916,N,00229.87699,E,0.054,,060721,,,A*68
$GNGGA,181545.60,4856.79916,N,00229.87699,E,1,12,0.83,42.8,M,46.2,M,,*71
$GNRMC,181545.80,A,4856.79917,N,00229.87701,E,0.053,,060721,,,A*60
$GNGGA,181545.80,4856.79917,N,00229.87701,E,1,12,0.83,42.8,M,46.2,M,,*7E
$GNTXT,01,01,01,PUBX 40 unknown msg*7A
$GNRMC,181546.00,A,4856.79917,N,00229.87702,E,0.020,,060721,,,A*6C
$GNGGA,181546.00,4856.79917,N,00229.87702,E,1,12,0.83,42.8,M,46.2,M,,*76
$GNRMC,181546.20,A,4856.79916,N,00229.87702,E,0.034,,060721,,,A*6A
$GNGGA,181546.20,4856.79916,N,00229.87702,E,1,12,0.83,42.8,M,46.2,M,,*75
$GNRMC,181546.40,A,4856.79917,N,00229.87703,E,0.077,,060721,,,A*6B
$GNGGA,181546.40,4856.79917,N,00229.87703,E,1,12,0.83,42.8,M,46.2,M,,*73
$GNRMC,181546.60,A,4856.79918,N,00229.87705,E,0.095,,060721,,,A*6C
$GNGGA,181546.60,4856.79918,N,00229.87705,E,1,12,0.83,42.8,M,46.2,M,,*78
$GNRMC,181546.80,A,4856.79919,N,00229.87708,E,0.107,,060721,,,A*64
$GNGGA,181546.80,4856.79919,N,00229.87708,E,1,12,0.83,42.8,M,46.2,M,,*7A
$GNRMC,181547.00,A,4856.79920,N,00229.87709,E,0.186,,060721,,,A*6F
$GNGGA,181547.00,4856.79920,N,00229.87709,E,1,12,0.83,42.8,M,46.2,M,,*78
$GNRMC,181547.20,A,4856.79920,N,00229.87711,E,0.018,,060721,,,A*62
$GNGGA,181547.20,4856.79920,N,00229.87711,E,1,12,0.83,42.8,M,46.2,M,,*73
$GNRMC,181547.40,A,4856.79920,N,00229.87713,E,0.098,,060721,,,A*6E
$GNGGA,181547.40,4856.79920,N,00229.87713,E,1,12,0.83,42.8,M,46.2,M,,*77
$GNRMC,181547.60,A,4856.79921,N,00229.87714,E,0.115,,060721,,,A*6E
$GNGGA,181547.60,4856.79921,N,00229.87714,E,1,12,0.83,42.8,M,46.2,M,,*73
$GNRMC,181547.80,A,4856.79921,N,00229.87717,E,0.051,,060721,,,A*62
$GNGGA,181547.80,4856.79921,N,00229.87717,E,1,12,0.74,42.9,M,46.2,M,,*77
$GNRMC,181548.00,A,4856.79925,N,00229.87722,E,0.263,,060721,,,A*64
$GNGGA,181548.00,4856.79925,N,00229.87722,E,1,12,0.74,42.9,M,46.2,M,,*72
$GNRMC,181548.20,A,4856.79927,N,00229.87727,E,0.237,,060721,,,A*60
$GNGGA,181548.20,4856.79927,N,00229.87727,E,1,12,0.74,43.0,M,46.2,M,,*7F
$GNRMC,181548.40,A,4856.79928,N,00229.87729,E,0.105,,060721,,,A*65
$GNGGA,181548.40,4856.79928,N,00229.87729,E,1,12,0.74,43.0,M,46.2,M,,*78
$GNRMC,181548.60,A,4856.79928,N,00229.87732,E,0.077,,060721,,,A*69
$GNGGA,181548.60,4856.79928,N,00229.87732,E,1,12,0.74,43.0,M,46.2,M,,*70
$GNRMC,181548.80,A,4856.79928,N,00229.87734,E,0.044,,060721,,,A*61
$GNGGA,181548.80,4856.79928,N,00229.87734,E,1,12,0.74,43.0,M,46.2,M,,*78
$GNRMC,181549.00,A,4856.79930,N,00229.87737,E,0.107,,060721,,,A*64
$GNGGA,181549.00,4856.79930,N,00229.87737,E,1,12,0.74,43.1,M,46.2,M,,*7A
$GNRMC,181549.20,A,4856.79930,N,00229.87740,E,0.060,,060721,,,A*66
$GNGGA,181549.20,4856.79930,N,00229.87740,E,1,12,0.74,43.1,M,46.2,M,,*78
$GNRMC,181549.40,A,4856.79930,N,00229.87742,E,0.134,,060721,,,A*62
$GNGGA,181549.40,4856.79930,N,00229.87742,E,1,12,0.74,43.1,M,46.2,M,,*7C
$GNRMC,181549.60,A,4856.79929,N,00229.87744,E,0.131,,060721,,,A*6B
$GNGGA,181549.60,4856.79929,N,00229.87744,E,1,12,0.74,43.1,M,46.2,M,,*70
$GNRMC,181549.80,A,4856.79928,N,00229.87744,E,0.160,,060721,,,A*60
$GNGGA,181549.80,4856.79928,N,00229.87744,E,1,12,0.74,43.1,M,46.2,M,,*7F
$GNRMC,181550.00,A,4856.79927,N,00229.87747,E,0.234,,060721,,,A*6E
$GNGGA,181550.00,4856.79927,N,00229.87747,E,1,12,0.74,43.1,M,46.2,M,,*73
$GNRMC,181550.20,A,4856.79926,N,00229.87748,E,0.193,,060721,,,A*6C
$GNGGA,181550.20,4856.79926,N,00229.87748,E,1,12,0.74,43.2,M,46.2,M,,*7C
$GNRMC,181550.40,A,4856.79928,N,00229.87753,E,0.082,,060721,,,A*6F
$GNGGA,181550.40,4856.79928,N,00229.87753,E,1,12,0.74,43.2,M,46.2,M,,*7E
$GNRMC,181550.60,A,4856.79929,N,00229.87755,E,0.084,,060721,,,A*6C
$GNGGA,181550.60,4856.79929,N,00229.87755,E,1,12,0.74,43.3,M,46.2,M,,*7A
$GNRMC,181550.80,A,4856.79930,N,00229.87757,E,0.046,,060721,,,A*66
$GNGGA,181550.80,4856.79930,N,00229.87757,E,1,12,0.74,43.3,M,46.2,M,,*7E
$GNRMC,181551.00,A,4856.79930,N,00229.87759,E,0.071,,060721,,,A*65
$GNGGA,181551.00,4856.79930,N,00229.87759,E,1,12,0.74,43.3,M,46.2,M,,*79
$GNRMC,181551.20,A,4856.79932,N,00229.87761,E,0.133,,060721,,,A*69
$GNGGA,181551.20,4856.79932,N,00229.87761,E,1,12,0.77,43.3,M,46.2,M,,*71
$GNRMC,181551.40,A,4856.79932,N,00229.87765,E,0.090,,060721,,,A*63
$GNGGA,181551.40,4856.79932,N,00229.87765,E,1,12,0.77,43.3,M,46.2,M,,*73
$GNRMC,181551.60,A,4856.79934,N,00229.87772,E,0.127,,060721,,,A*6C
$GNGGA,181551.60,4856.79934,N,00229.87772,E,1,12,0.72,43.4,M,46.2,M,,*73
$GNRMC,181551.80,A,4856.79936,N,00229.87779,E,0.075,,060721,,,A*6D
$GNGGA,181551.80,4856.79936,N,00229.87779,E,1,12,0.72,43.5,M,46.2,M,,*75
$GNRMC,181552.00,A,4856.79939,N,00229.87783,E,0.090,,060721,,,A*67
$GNGGA,181552.00,4856.79939,N,00229.87783,E,1,12,0.72,43.5,M,46.2,M,,*74
$GNRMC,181552.20,A,4856.79939,N,00229.87790,E,0.100,,060721,,,A*6F
$GNGGA,181552.20,4856.79939,N,00229.87790,E,1,12,0.70,43.7,M,46.2,M,,*74
$GNRMC,181552.40,A,4856.79940,N,00229.87796,E,0.157,,060721,,,A*63
$GNGGA,181552.40,4856.79940,N,00229.87796,E,1,12,0.70,43.7,M,46.2,M,,*7A
$GNRMC,181552.60,A,4856.79942,N,00229.87801,E,0.120,,060721,,,A*62
$GNGGA,181552.60,4856.79942,N,00229.87801,E,1,12,0.70,43.8,M,46.2,M,,*74
$GNRMC,181552.80,A,4856.79942,N,00229.87807,E,0.189,,060721,,,A*69
$GNGGA,181552.80,4856.79942,N,00229.87807,E,1,12,0.70,43.9,M,46.2,M,,*7D
$GNRMC,181553.00,A,4856.79943,N,00229.87812,E,0.207,,060721,,,A*60
$GNGGA,181553.00,4856.79943,N,00229.87812,E,1,12,0.70,44.0,M,46.2,M,,*7F
$GNRMC,181553.20,A,4856.79944,N,00229.87816,E,0.147,,060721,,,A*66
$GNGGA,181553.20,4856.79944,N,00229.87816,E,1,12,0.70,44.1,M,46.2,M,,*7F
$GNRMC,181553.40,A,4856.79946,N,00229.87820,E,0.059,,060721,,,A*69
$GNGGA,181553.40,4856.79946,N,00229.87820,E,1,12,0.70,44.1,M,46.2,M,,*7E
$GNRMC,181553.60,A,4856.79946,N,00229.87824,E,0.227,,060721,,,A*64
$GNGGA,181553.60,4856.79946,N,00229.87824,E,1,12,0.70,44.2,M,46.2,M,,*7B
$GNRMC,181553.80,A,4856.79947,N,00229.87828,E,0.050,,060721,,,A*65
$GNGGA,181553.80,4856.79947,N,00229.87828,E,1,12,0.70,44.2,M,46.2,M,,*78
$GNRMC,181554.00,A,4856.79949,N,00229.87833,E,0.026,,060721,,,A*6F
$GNGGA,181554.00,4856.79949,N,00229.87833,E,1,12,0.70,44.3,M,46.2,M,,*72
$GNRMC,181554.20,A,4856.79949,N,00229.87836,E,0.164,,060721,,,A*6F
$GNGGA,181554.20,4856.79949,N,00229.87836,E,1,12,0.70,44.3,M,46.2,M,,*75
$GNRMC,181554.40,A,4856.79949,N,00229.87841,E,0.145,,060721,,,A*6A
$GNGGA,181554.40,4856.79949,N,00229.87841,E,1,12,0.70,44.4,M,46.2,M,,*74
$GNRMC,181554.60,A,4856.79951,N,00229.87846,E,0.074,,060721,,,A*65
$GNGGA,181554.60,4856.79951,N,00229.87846,E,1,12,0.71,44.5,M,46.2,M,,*78
$GNRMC,181554.80,A,4856.79951,N,00229.87849,E,0.119,,060721,,,A*6E
$GNGGA,181554.80,4856.79951,N,00229.87849,E,1,12,0.70,44.5,M,46.2,M,,*78
$GNRMC,181555.00,A,4856.79950,N,00229.87853,E,0.289,,060721,,,A*67
$GNGGA,181555.00,4856.79950,N,00229.87853,E,1,12,0.70,44.6,M,46.2,M,,*78
$GNRMC,181555.20,A,4856.79951,N,00229.87855,E,0.107,,060721,,,A*67
$GNGGA,181555.20,4856.79951,N,00229.87855,E,1,12,0.70,44.6,M,46.2,M,,*7D
$GNRMC,181555.40,A,4856.79951,N,00229.87858,E,0.171,,060721,,,A*6D
$GNGGA,181555.40,4856.79951,N,00229.87858,E,1,12,0.70,44.7,M,46.2,M,,*77
$GNRMC,181555.60,A,4856.79951,N,00229.87860,E,0.169,,060721,,,A*6D
$GNGGA,181555.60,4856.79951,N,00229.87860,E,1,12,0.70,44.7,M,46.2,M,,*7E
$GNRMC,181555.80,A,4856.79953,N,00229.87864,E,0.087,,060721,,,A*64
$GNGGA,181555.80,4856.79953,N,00229.87864,E,1,12,0.70,44.8,M,46.2,M,,*79
$GNRMC,181556.00,A,4856.79954,N,00229.87868,E,0.083,,060721,,,A*60
$GNGGA,181556.00,4856.79954,N,00229.87868,E,1,12,0.70,44.9,M,46.2,M,,*78
$GNRMC,181556.20,A,4856.79954,N,00229.87870,E,0.103,,060721,,,A*62
$GNGGA,181556.20,4856.79954,N,00229.87870,E,1,12,0.70,44.9,M,46.2,M,,*73
$GNRMC,181556.40,A,4856.79956,N,00229.87874,E,0.049,,060721,,,A*6D
$GNGGA,181556.40,4856.79956,N,00229.87874,E,1,12,0.70,45.0,M,46.2,M,,*7B
$GNRMC,181556.60,A,4856.79957,N,00229.87877,E,0.026,,060721,,,A*64
$GNGGA,181556.60,4856.79957,N,00229.87877,E,1,12,0.70,45.0,M,46.2,M,,*7B
$GNRMC,181556.80,A,4856.79957,N,00229.87879,E,0.023,,060721,,,A*61
$GNGGA,181556.80,4856.79957,N,00229.87879,E,1,12,0.70,45.1,M,46.2,M,,*7A
$GNRMC,181557.00,A,4856.79958,N,00229.87881,E,0.078,,060721,,,A*6E
$GNGGA,181557.00,4856.79958,N,00229.87881,E,1,12,0.70,45.1,M,46.2,M,,*7B
$GNRMC,181557.20,A,4856.79961,N,00229.87884,E,0.209,,060721,,,A*67
$GNGGA,181557.20,4856.79961,N,00229.87884,E,1,12,0.70,45.2,M,46.2,M,,*75
$GNRMC,181557.40,A,4856.79964,N,00229.87889,E,0.244,,060721,,,A*60
$GNGGA,181557.40,4856.79964,N,00229.87889,E,1,12,0.70,45.2,M,46.2,M,,*7B
$GNRMC,181557.60,A,4856.79965,N,00229.87891,E,0.067,,060721,,,A*69
$GNGGA,181557.60,4856.79965,N,00229.87891,E,1,12,0.71,45.3,M,46.2,M,,*71
$GNRMC,181557.80,A,4856.79965,N,00229.87893,E,0.020,,060721,,,A*66
$GNGGA,181557.80,4856.79965,N,00229.87893,E,1,12,0.71,45.3,M,46.2,M,,*7D
$GNRMC,181558.00,A,4856.79965,N,00229.87894,E,0.093,,060721,,,A*6E
$GNGGA,181558.00,4856.79965,N,00229.87894,E,1,12,0.71,45.4,M,46.2,M,,*7A
$GNRMC,181558.20,A,4856.79966,N,00229.87898,E,0.012,,060721,,,A*6A
$GNGGA,181558.20,4856.79966,N,00229.87898,E,1,12,0.71,45.5,M,46.2,M,,*76
$GNRMC,181558.40,A,4856.79966,N,00229.87901,E,0.107,,060721,,,A*68
$GNGGA,181558.40,4856.79966,N,00229.87901,E,1,12,0.71,45.5,M,46.2,M,,*71
$GNRMC,181558.60,A,4856.79966,N,00229.87903,E,0.061,,060721,,,A*69
$GNGGA,181558.60,4856.79966,N,00229.87903,E,1,12,0.70,45.5,M,46.2,M,,*70
$GNRMC,181558.80,A,4856.79968,N,00229.87907,E,0.053,,060721,,,A*6C
$GNGGA,181558.80,4856.79968,N,00229.87907,E,1,12,0.70,45.6,M,46.2,M,,*77
$GNRMC,181559.00,A,4856.79970,N,00229.87910,E,0.168,,060721,,,A*63
$GNGGA,181559.00,4856.79970,N,00229.87910,E,1,12,0.70,45.6,M,46.2,M,,*71
$GNRMC,181559.20,A,4856.79970,N,00229.87913,E,0.111,,060721,,,A*6C
$GNGGA,181559.20,4856.79970,N,00229.87913,E,1,12,0.70,45.7,M,46.2,M,,*71
$GNRMC,181559.40,A,4856.79973,N,00229.87918,E,0.228,,060721,,,A*6B
$GNGGA,181559.40,4856.79973,N,00229.87918,E,1,12,0.70,45.8,M,46.2,M,,*70
$GNRMC,181559.60,A,4856.79974,N,00229.87920,E,0.188,,060721,,,A*6C
$GNGGA,181559.60,4856.79974,N,00229.87920,E,1,12,0.70,45.8,M,46.2,M,,*7E
$GNRMC,181559.80,A,4856.79975,N,00229.87924,E,0.156,,060721,,,A*64
$GNGGA,181559.80,4856.79975,N,00229.87924,E,1,12,0.70,45.9,M,46.2,M,,*74
$GNRMC,181600.00,A,4856.79976,N,00229.87927,E,0.209,,060721,,,A*6A
$GNGGA,181600.00,4856.79976,N,00229.87927,E,1,12,0.70,45.9,M,46.2,M,,*73
$GNRMC,181600.20,A,4856.79976,N,00229.87930,E,0.083,,060721,,,A*6E
$GNGGA,181600.20,4856.79976,N,00229.87930,E,1,12,0.70,46.0,M,46.2,M,,*7D
$GNRMC,181600.40,A,4856.79978,N,00229.87932,E,0.156,,060721,,,A*6D
$GNGGA,181600.40,4856.79978,N,00229.87932,E,1,12,0.70,46.0,M,46.2,M,,*77
$GNRMC,181600.60,A,4856.79978,N,00229.87935,E,0.039,,060721,,,A*60
$GNGGA,181600.60,4856.79978,N,00229.87935,E,1,12,0.70,46.1,M,46.2,M,,*73
$GNRMC,181600.80,A,4856.79978,N,00229.87936,E,0.082,,060721,,,A*6D
$GNGGA,181600.80,4856.79978,N,00229.87936,E,1,12,0.70,46.2,M,46.2,M,,*7D
$GNRMC,181601.00,A,4856.79979,N,00229.87938,E,0.028,,060721,,,A*6B
$GNGGA,181601.00,4856.79979,N,00229.87938,E,1,12,0.70,46.2,M,46.2,M,,*7B
$GNRMC,181601.20,A,4856.79979,N,00229.87940,E,0.013,,060721,,,A*6E
$GNGGA,181601.20,4856.79979,N,00229.87940,E,1,12,0.70,46.3,M,46.2,M,,*77
$GNRMC,181601.40,A,4856.79979,N,00229.87942,E,0.041,,060721,,,A*6D
$GNGGA,181601.40,4856.79979,N,00229.87942,E,1,12,0.70,46.3,M,46.2,M,,*73
$GNRMC,181601.60,A,4856.79981,N,00229.87943,E,0.141,,060721,,,A*68
$GNGGA,181601.60,4856.79981,N,00229.87943,E,1,12,0.70,46.3,M,46.2,M,,*77
$GNRMC,181601.80,A,4856.79980,N,00229.87944,E,0.051,,060721,,,A*60
$GNGGA,181601.80,4856.79980,N,00229.87944,E,1,12,0.70,46.4,M,46.2,M,,*78
$GNRMC,181602.00,A,4856.79981,N,00229.87945,E,0.071,,060721,,,A*69
$GNGGA,181602.00,4856.79981,N,00229.87945,E,1,12,0.70,46.4,M,46.2,M,,*73
$GNRMC,181602.20,A,4856.79982,N,00229.87947,E,0.131,,060721,,,A*6F
$GNGGA,181602.20,4856.79982,N,00229.87947,E,1,12,0.70,46.5,M,46.2,M,,*71
$GNRMC,181602.40,A,4856.79983,N,00229.87948,E,0.037,,060721,,,A*60
$GNGGA,181602.40,4856.79983,N,00229.87948,E,1,12,0.71,46.5,M,46.2,M,,*78
$GNRMC,181602.60,A,4856.79983,N,00229.87949,E,0.074,,060721,,,A*64
$GNGGA,181602.60,4856.79983,N,00229.87949,E,1,12,0.71,46.5,M,46.2,M,,*7B
$GNRMC,181602.80,A,4856.79985,N,00229.87951,E,0.169,,060721,,,A*68
$GNGGA,181602.80,4856.79985,N,00229.87951,E,1,12,0.71,46.6,M,46.2,M,,*79
$GNRMC,181603.00,A,4856.79985,N,00229.87954,E,0.127,,060721,,,A*6E
$GNGGA,181603.00,4856.79985,N,00229.87954,E,1,12,0.71,46.6,M,46.2,M,,*75
$GNRMC,181603.20,A,4856.79986,N,00229.87955,E,0.042,,060721,,,A*6C
$GNGGA,181603.20,4856.79986,N,00229.87955,E,1,12,0.71,46.7,M,46.2,M,,*74
$GNRMC,181603.40,A,4856.79988,N,00229.87957,E,0.149,,060721,,,A*6C
$GNGGA,181603.40,4856.79988,N,00229.87957,E,1,12,0.71,46.7,M,46.2,M,,*7E
$GNRMC,181603.60,A,4856.79988,N,00229.87957,E,0.092,,060721,,,A*69
$GNGGA,181603.60,4856.79988,N,00229.87957,E,1,12,0.71,46.7,M,46.2,M,,*7C
$GNRMC,181603.80,A,4856.79989,N,00229.87959,E,0.024,,060721,,,A*65
$GNGGA,181603.80,4856.79989,N,00229.87959,E,1,12,0.71,46.7,M,46.2,M,,*7D
$GNRMC,181604.00,A,4856.79989,N,00229.87959,E,0.080,,060721,,,A*64
$GNGGA,181604.00,4856.79989,N,00229.87959,E,1,12,0.71,46.8,M,46.2,M,,*7D
$GNRMC,181604.20,A,4856.79989,N,00229.87961,E,0.055,,060721,,,A*65
$GNGGA,181604.20,4856.79989,N,00229.87961,E,1,12,0.71,46.8,M,46.2,M,,*74
$GNRMC,181604.40,A,4856.79990,N,00229.87962,E,0.049,,060721,,,A*65
