$GNGGA,175259.60,4856.80025,N,00229.87572,E,1,12,0.77,36.0,M,46.2,M,,*79
$GNRMC,175259.80,A,4856.80024,N,00229.87570,E,0.135,,060721,,,A*6B
$GNGGA,175259.80,4856.80024,N,00229.87570,E,1,12,0.77,35.9,M,46.2,M,,*7E
$GNRMC,175300.00,A,4856.80024,N,00229.87569,E,0.074,,060721,,,A*62
$GNGGA,175300.00,4856.80024,N,00229.87569,E,1,12,0.77,35.9,M,46.2,M,,*73
$GNTXT,01,01,02,u-blox AG - www.u-blox.com*4E
$GNTXT,01,01,02,HW UBX-M8030 00080000*60
$GNTXT,01,01,02,ROM CORE 3.01 (107888)*2B
$GNTXT,01,01,02,FWVER=SPG 3.01*46
$GNTXT,01,01,02,PROTVER=18.00*11
$GNTXT,01,01,02,GPS;GLO;GAL;BDS*77
$GNTXT,01,01,02,SBAS;IMES;QZSS*49
$GNTXT,01,01,02,GNSS OTP=GPS;GLO*37
$GNTXT,01,01,02,LLC=FFFFFFFF-FFFFFFFF-FFFFFFFF-FFFFFFFF-FFFFFFFD*2F
$GNTXT,01,01,02,ANTSUPERV=AC SD PDoS SR*3E
$GNTXT,01,01,02,ANTSTATUS=OK*25
$GNTXT,01,01,02,PF=3FF*4B
$GNRMC,175300.20,A,4856.80022,N,00229.87572,E,0.163,,060721,,,A*6B
$GNGGA,175300.20,4856.80022,N,00229.87572,E,1,12,0.77,35.9,M,46.2,M,,*7D
$GNGGA,175300.40,4856.80022,N,00229.87573,E,1,12,0.77,35.8,M,46.2,M,,*7B
$GNRMC,175300.60,A,4856.80021,N,00229.87571,E,0.014,,060721,,,A*6E
$GNGGA,175300.60,4856.80021,N,00229.87571,E,1,12,0.77,35.8,M,46.2,M,,*78
$GNRMC,175300.80,A,4856.80021,N,00229.87570,E,0.143,,060721,,,A*62
$GNGGA,175300.80,4856.80021,N,00229.87570,E,1,12,0.77,35.8,M,46.2,M,,*77
$GNRMC,175301.00,A,4856.80019,N,00229.87570,E,0.169,,060721,,,A*68
$GNGGA,175301.00,4856.80019,N,00229.87570,E,1,12,0.77,35.7,M,46.2,M,,*7A
$GNRMC,175301.20,A,4856.80019,N,00229.87572,E,0.172,,060721,,,A*62
$GNGGA,175301.20,4856.80019,N,00229.87572,E,1,12,0.77,35.7,M,46.2,M,,*7A
$GNRMC,175301.40,A,4856.80017,N,00229.87570,E,0.035,,060721,,,A*6A
$GNGGA,175301.40,4856.80017,N,00229.87570,E,1,12,0.77,35.7,M,46.2,M,,*70
$GNRMC,175301.60,A,4856.80016,N,00229.87568,E,0.066,,060721,,,A*66
$GNGGA,175301.60,4856.80016,N,00229.87568,E,1,12,0.77,35.6,M,46.2,M,,*7B
$GNRMC,175301.80,A,4856.80015,N,00229.87568,E,0.090,,060721,,,A*62
$GNGGA,175301.80,4856.80015,N,00229.87568,E,1,12,0.77,35.6,M,46.2,M,,*76
$GNRMC,175302.00,A,4856.80014,N,00229.87568,E,0.067,,060721,,,A*60
$GNGGA,175302.00,4856.80014,N,00229.87568,E,1,12,0.77,35.5,M,46.2,M,,*7F
$GNRMC,175302.20,A,4856.80013,N,00229.87568,E,0.080,,060721,,,A*6C
$GNGGA,175302.20,4856.80013,N,00229.87568,E,1,12,0.77,35.5,M,46.2,M,,*7A
$GNRMC,175302.40,A,4856.80012,N,00229.87565,E,0.148,,060721,,,A*63
$GNGGA,175302.40,4856.80012,N,00229.87565,E,1,12,0.77,35.5,M,46.2,M,,*70
$GNRMC,175302.60,A,4856.80011,N,00229.87565,E,0.034,,060721,,,A*68
$GNGGA,175302.60,4856.80011,N,00229.87565,E,1,12,0.77,35.5,M,46.2,M,,*71
$GNRMC,175302.80,A,4856.80010,N,00229.87565,E,0.018,,060721,,,A*69
$GNGGA,175302.80,4856.80010,N,00229.87565,E,1,12,0.77,35.4,M,46.2,M,,*7F
$GNRMC,175303.00,A,4856.80009,N,00229.87563,E,0.131,,060721,,,A*64
$GNGGA,175303.00,4856.80009,N,00229.87563,E,1,12,0.77,35.4,M,46.2,M,,*78
$GNRMC,175303.20,A,4856.80009,N,00229.87559,E,0.168,,060721,,,A*63
$GNGGA,175303.20,4856.80009,N,00229.87559,E,1,12,0.77,35.4,M,46.2,M,,*73
$GNRMC,175303.40,A,4856.80008,N,00229.87559,E,0.052,,060721,,,A*6C
$GNGGA,175303.40,4856.80008,N,00229.87559,E,1,12,0.77,35.4,M,46.2,M,,*74
$GNRMC,175303.60,A,4856.80008,N,00229.87560,E,0.078,,060721,,,A*6C
$GNGGA,175303.60,4856.80008,N,00229.87560,E,1,12,0.77,35.4,M,46.2,M,,*7C
$GNRMC,175303.80,A,4856.80007,N,00229.87559,E,0.039,,060721,,,A*62
$GNGGA,175303.80,4856.80007,N,00229.87559,E,1,12,0.77,35.3,M,46.2,M,,*70
$GNRMC,175304.00,A,4856.80006,N,00229.87557,E,0.049,,060721,,,A*65
$GNGGA,175304.00,4856.80006,N,00229.87557,E,1,12,0.77,35.3,M,46.2,M,,*70
$GNRMC,175304.20,A,4856.80005,N,00229.87558,E,0.066,,060721,,,A*66
$GNGGA,175304.20,4856.80005,N,00229.87558,E,1,12,0.77,35.3,M,46.2,M,,*7E
$GNTXT,01,01,01,PUBX 40 unknown msg*7A
$GNRMC,175304.40,A,4856.80004,N,00229.87555,E,0.072,,060721,,,A*69
$GNGGA,175304.40,4856.80004,N,00229.87555,E,1,12,0.77,35.3,M,46.2,M,,*74
$GNRMC,175304.60,A,4856.80003,N,00229.87557,E,0.081,,060721,,,A*62
$GNGGA,175304.60,4856.80003,N,00229.87557,E,1,12,0.77,35.4,M,46.2,M,,*74
$GNRMC,175304.80,A,4856.80003,N,00229.87556,E,0.064,,060721,,,A*66
$GNGGA,175304.80,4856.80003,N,00229.87556,E,1,12,0.87,35.4,M,46.2,M,,*74
$GNRMC,175305.00,A,4856.80002,N,00229.87555,E,0.068,,060721,,,A*61
$GNGGA,175305.00,4856.80002,N,00229.87555,E,1,12,0.77,35.3,M,46.2,M,,*77
$GNRMC,175305.20,A,4856.80001,N,00229.87554,E,0.085,,060721,,,A*62
$GNGGA,175305.20,4856.80001,N,00229.87554,E,1,12,0.77,35.4,M,46.2,M,,*70
$GNRMC,175305.40,A,4856.79999,N,00229.87558,E,0.156,,060721,,,A*69
$GNGGA,175305.40,4856.79999,N,00229.87558,E,1,12,0.77,35.4,M,46.2,M,,*74
$GNRMC,175305.60,A,4856.79999,N,00229.87556,E,0.096,,060721,,,A*68
$GNGGA,175305.60,4856.79999,N,00229.87556,E,1,12,0.77,35.4,M,46.2,M,,*78
$GNRMC,175305.80,A,4856.79998,N,00229.87554,E,0.053,,060721,,,A*6C
$GNGGA,175305.80,4856.79998,N,00229.87554,E,1,12,0.77,35.4,M,46.2,M,,*75
$GNRMC,175306.00,A,4856.79997,N,00229.87554,E,0.120,,060721,,,A*6D
$GNGGA,175306.00,4856.79997,N,00229.87554,E,1,12,0.77,35.4,M,46.2,M,,*71
$GNRMC,175306.20,A,4856.79996,N,00229.87557,E,0.122,,060721,,,A*6F
$GNGGA,175306.20,4856.79996,N,00229.87557,E,1,12,0.77,35.4,M,46.2,M,,*71
$GNRMC,175306.40,A,4856.79994,N,00229.87559,E,0.125,,060721,,,A*62
$GNGGA,175306.40,4856.79994,N,00229.87559,E,1,12,0.77,35.4,M,46.2,M,,*7B
$GNRMC,175306.60,A,4856.79993,N,00229.87558,E,0.020,,060721,,,A*62
$GNGGA,175306.60,4856.79993,N,00229.87558,E,1,12,0.77,35.4,M,46.2,M,,*7F
$GNRMC,175306.80,A,4856.79993,N,00229.87560,E,0.079,,060721,,,A*6B
$GNGGA,175306.80,4856.79993,N,00229.87560,E,1,12,0.77,35.4,M,46.2,M,,*7A
$GNRMC,175307.00,A,4856.79991,N,00229.87562,E,0.138,,060721,,,A*66
$GNGGA,175307.00,4856.79991,N,00229.87562,E,1,12,0.77,35.4,M,46.2,M,,*73
$GNRMC,175307.20,A,4856.79991,N,00229.87558,E,0.082,,060721,,,A*6D
$GNGGA,175307.20,4856.79991,N,00229.87558,E,1,12,0.77,35.4,M,46.2,M,,*78
$GNRMC,175307.40,A,4856.79989,N,00229.87557,E,0.017,,060721,,,A*61
$GNGGA,175307.40,4856.79989,N,00229.87557,E,1,12,0.77,35.3,M,46.2,M,,*7F
$GNRMC,175307.60,A,4856.79988,N,00229.87560,E,0.135,,060721,,,A*67
$GNGGA,175307.60,4856.79988,N,00229.87560,E,1,12,0.77,35.3,M,46.2,M,,*78
$GNRMC,175307.80,A,4856.79986,N,00229.87560,E,0.105,,060721,,,A*64
$GNGGA,175307.80,4856.79986,N,00229.87560,E,1,12,0.87,35.3,M,46.2,M,,*77
$GNRMC,175308.00,A,4856.79984,N,00229.87559,E,0.049,,060721,,,A*62
$GNGGA,175308.00,4856.79984,N,00229.87559,E,1,12,0.77,35.2,M,46.2,M,,*76
$GNRMC,175308.20,A,4856.79982,N,00229.87554,E,0.118,,060721,,,A*6E
$GNGGA,175308.20,4856.79982,N,00229.87554,E,1,12,0.77,35.2,M,46.2,M,,*7F
$GNRMC,175308.40,A,4856.79982,N,00229.87551,E,0.132,,060721,,,A*65
$GNGGA,175308.40,4856.79982,N,00229.87551,E,1,12,0.77,35.2,M,46.2,M,,*7C
$GNRMC,175308.60,A,4856.79980,N,00229.87553,E,0.037,,060721,,,A*63
$GNGGA,175308.60,4856.79980,N,00229.87553,E,1,12,0.77,35.2,M,46.2,M,,*7E
$GNRMC,175308.80,A,4856.79979,N,00229.87552,E,0.087,,060721,,,A*61
$GNGGA,175308.80,4856.79979,N,00229.87552,E,1,12,0.77,35.1,M,46.2,M,,*74
$GNRMC,175309.00,A,4856.79978,N,00229.87551,E,0.022,,060721,,,A*65
$GNGGA,175309.00,4856.79978,N,00229.87551,E,1,12,0.77,35.1,M,46.2,M,,*7F
$GNRMC,175309.20,A,4856.79978,N,00229.87550,E,0.094,,060721,,,A*6B
$GNGGA,175309.20,4856.79978,N,00229.87550,E,1,12,0.77,35.1,M,46.2,M,,*7C
$GNRMC,175309.40,A,4856.79977,N,00229.87550,E,0.019,,060721,,,A*67
$GNGGA,175309.40,4856.79977,N,00229.87550,E,1,12,0.77,35.1,M,46.2,M,,*75
$GNRMC,175309.60,A,4856.79977,N,00229.87548,E,0.089,,060721,,,A*65
$GNGGA,175309.60,4856.79977,N,00229.87548,E,1,12,0.77,35.1,M,46.2,M,,*7E
$GNRMC,175309.80,A,4856.79976,N,00229.87549,E,0.033,,060721,,,A*6A
$GNGGA,175309.80,4856.79976,N,00229.87549,E,1,12,0.77,35.1,M,46.2,M,,*70
$GNRMC,175310.00,A,4856.79975,N,00229.87547,E,0.033,,060721,,,A*67
$GNGGA,175310.00,4856.79975,N,00229.87547,E,1,12,0.85,35.1,M,46.2,M,,*70
$GNRMC,175310.20,A,4856.79974,N,00229.87544,E,0.018,,060721,,,A*6E
$GNGGA,175310.20,4856.79974,N,00229.87544,E,1,12,0.85,35.0,M,46.2,M,,*71
$GNRMC,175310.40,A,4856.79973,N,00229.87543,E,0.006,,060721,,,A*67
$GNGGA,175310.40,4856.79973,N,00229.87543,E,1,12,0.85,35.0,M,46.2,M,,*77
$GNRMC,175310.60,A,4856.79972,N,00229.87541,E,0.054,,060721,,,A*61
$GNGGA,175310.60,4856.79972,N,00229.87541,E,1,12,0.85,35.0,M,46.2,M,,*76
$GNRMC,175310.80,A,4856.79971,N,00229.87538,E,0.036,,060721,,,A*66
$GNGGA,175310.80,4856.79971,N,00229.87538,E,1,12,0.96,35.0,M,46.2,M,,*77
$GNRMC,175311.00,A,4856.79970,N,00229.87537,E,0.025,,060721,,,A*63
$GNGGA,175311.00,4856.79970,N,00229.87537,E,1,12,0.79,34.9,M,46.2,M,,*79
$GNRMC,175311.20,A,4856.79969,N,00229.87536,E,0.045,,060721,,,A*6E
$GNGGA,175311.20,4856.79969,N,00229.87536,E,1,12,0.79,34.9,M,46.2,M,,*72
$GNRMC,175311.40,A,4856.79968,N,00229.87534,E,0.045,,060721,,,A*6B
$GNGGA,175311.40,4856.79968,N,00229.87534,E,1,12,0.85,34.9,M,46.2,M,,*74
$GNRMC,175311.60,A,4856.79967,N,00229.87530,E,0.194,,060721,,,A*6F
$GNGGA,175311.60,4856.79967,N,00229.87530,E,1,12,0.85,34.9,M,46.2,M,,*7D
$GNRMC,175311.80,A,4856.79966,N,00229.87528,E,0.097,,060721,,,A*6B
$GNGGA,175311.80,4856.79966,N,00229.87528,E,1,12,0.85,34.8,M,46.2,M,,*7A
$GNRMC,175312.00,A,4856.79965,N,00229.87525,E,0.163,,060721,,,A*64
$GNGGA,175312.00,4856.79965,N,00229.87525,E,1,12,0.85,34.8,M,46.2,M,,*7F
$GNRMC,175312.20,A,4856.79964,N,00229.87523,E,0.110,,060721,,,A*65
$GNGGA,175312.20,4856.79964,N,00229.87523,E,1,12,0.85,34.8,M,46.2,M,,*7A
$GNRMC,175312.40,A,4856.79963,N,00229.87522,E,0.049,,060721,,,A*68
$GNGGA,175312.40,4856.79963,N,00229.87522,E,1,12,0.85,34.7,M,46.2,M,,*75
$GNRMC,175312.60,A,4856.79962,N,00229.87522,E,0.032,,060721,,,A*67
$GNGGA,175312.60,4856.79962,N,00229.87522,E,1,12,0.85,34.7,M,46.2,M,,*76
$GNRMC,175312.80,A,4856.79961,N,00229.87519,E,0.106,,060721,,,A*64
$GNGGA,175312.80,4856.79961,N,00229.87519,E,1,12,0.85,34.6,M,46.2,M,,*72
$GNRMC,175313.00,A,4856.79960,N,00229.87517,E,0.062,,060721,,,A*61
$GNGGA,175313.00,4856.79960,N,00229.87517,E,1,12,0.85,34.6,M,46.2,M,,*74
$GNRMC,175313.20,A,4856.79959,N,00229.87514,E,0.052,,060721,,,A*69
$GNGGA,175313.20,4856.79959,N,00229.87514,E,1,12,0.85,34.6,M,46.2,M,,*7F
$GNRMC,175313.40,A,4856.79957,N,00229.87513,E,0.111,,060721,,,A*60
$GNGGA,175313.40,4856.79957,N,00229.87513,E,1,12,0.85,34.6,M,46.2,M,,*70
$GNRMC,175313.60,A,4856.79956,N,00229.87509,E,0.067,,060721,,,A*68
$GNGGA,175313.60,4856.79956,N,00229.87509,E,1,12,0.85,34.5,M,46.2,M,,*7B
$GNRMC,175313.80,A,4856.79955,N,00229.87504,E,0.114,,060721,,,A*6D
$GNGGA,175313.80,4856.79955,N,00229.87504,E,1,12,0.96,34.5,M,46.2,M,,*79
$GNRMC,175314.00,A,4856.79954,N,00229.87503,E,0.060,,060721,,,A*66
$GNGGA,175314.00,4856.79954,N,00229.87503,E,1,12,0.85,34.5,M,46.2,M,,*72
$GNRMC,175314.20,A,4856.79953,N,00229.87501,E,0.112,,060721,,,A*65
$GNGGA,175314.20,4856.79953,N,00229.87501,E,1,12,0.85,34.4,M,46.2,M,,*74
$GNRMC,175314.40,A,4856.79952,N,00229.87497,E,0.071,,060721,,,A*68
$GNGGA,175314.40,4856.79952,N,00229.87497,E,1,12,0.85,34.4,M,46.2,M,,*7D
$GNRMC,175314.60,A,4856.79950,N,00229.87492,E,0.095,,060721,,,A*67
$GNGGA,175314.60,4856.79950,N,00229.87492,E,1,12,0.85,34.3,M,46.2,M,,*7F
$GNRMC,175314.80,A,4856.79948,N,00229.87488,E,0.131,,060721,,,A*64
$GNGGA,175314.80,4856.79948,N,00229.87488,E,1,12,0.85,34.2,M,46.2,M,,*72
$GNRMC,175315.00,A,4856.79946,N,00229.87481,E,0.237,,060721,,,A*6F
$GNGGA,175315.00,4856.79946,N,00229.87481,E,1,12,0.85,34.2,M,46.2,M,,*7C
$GNRMC,175315.20,A,4856.79945,N,00229.87479,E,0.205,,060721,,,A*68
$GNGGA,175315.20,4856.79945,N,00229.87479,E,1,12,0.85,34.1,M,46.2,M,,*79
$GNRMC,175315.40,A,4856.79943,N,00229.87475,E,0.213,,060721,,,A*63
$GNGGA,175315.40,4856.79943,N,00229.87475,E,1,12,0.85,34.1,M,46.2,M,,*75
$GNRMC,175315.60,A,4856.79942,N,00229.87469,E,0.300,,060721,,,A*6E
$GNGGA,175315.60,4856.79942,N,00229.87469,E,1,12,0.85,34.0,M,46.2,M,,*7A
$GNRMC,175315.80,A,4856.79941,N,00229.87468,E,0.178,,060721,,,A*6F
$GNGGA,175315.80,4856.79941,N,00229.87468,E,1,12,0.77,34.0,M,46.2,M,,*7B
$GNRMC,175316.00,A,4856.79940,N,00229.87467,E,0.139,,060721,,,A*6F
$GNGGA,175316.00,4856.79940,N,00229.87467,E,1,12,0.77,34.0,M,46.2,M,,*7E
$GNRMC,175316.20,A,4856.79938,N,00229.87461,E,0.277,,060721,,,A*6D
$GNGGA,175316.20,4856.79938,N,00229.87461,E,1,12,0.77,33.9,M,46.2,M,,*7B
$GNRMC,175316.40,A,4856.79938,N,00229.87461,E,0.069,,060721,,,A*66
$GNGGA,175316.40,4856.79938,N,00229.87461,E,1,12,0.77,33.9,M,46.2,M,,*7D
$GNRMC,175316.60,A,4856.79937,N,00229.87460,E,0.133,,060721,,,A*64
$GNGGA,175316.60,4856.79937,N,00229.87460,E,1,12,0.77,33.9,M,46.2,M,,*71
$GNRMC,175316.80,A,4856.79937,N,00229.87457,E,0.055,,060721,,,A*6F
$GNGGA,175316.80,4856.79937,N,00229.87457,E,1,12,0.87,33.9,M,46.2,M,,*74
$GNRMC,175317.00,A,4856.79935,N,00229.87456,E,0.097,,060721,,,A*6B
$GNGGA,175317.00,4856.79935,N,00229.87456,E,1,12,0.77,33.9,M,46.2,M,,*71
$GNRMC,175317.20,A,4856.79934,N,00229.87457,E,0.083,,060721,,,A*6C
$GNGGA,175317.20,4856.79934,N,00229.87457,E,1,12,0.77,33.8,M,46.2,M,,*72
$GNRMC,175317.40,A,4856.79933,N,00229.87456,E,0.091,,060721,,,A*6F
$GNGGA,175317.40,4856.79933,N,00229.87456,E,1,12,0.77,33.8,M,46.2,M,,*72
$GNRMC,175317.60,A,4856.79931,N,00229.87450,E,0.108,,060721,,,A*68
$GNGGA,175317.60,4856.79931,N,00229.87450,E,1,12,0.86,33.7,M,46.2,M,,*75
$GNRMC,175317.80,A,4856.79931,N,00229.87448,E,0.060,,060721,,,A*60
$GNGGA,175317.80,4856.79931,N,00229.87448,E,1,12,0.86,33.7,M,46.2,M,,*72
$GNRMC,175318.00,A,4856.79929,N,00229.87445,E,0.045,,060721,,,A*64
$GNGGA,175318.00,4856.79929,N,00229.87445,E,1,12,0.86,33.7,M,46.2,M,,*71
$GNRMC,175318.20,A,4856.79928,N,00229.87442,E,0.156,,060721,,,A*63
$GNGGA,175318.20,4856.79928,N,00229.87442,E,1,12,0.86,33.6,M,46.2,M,,*74
$GNRMC,175318.40,A,4856.79928,N,00229.87439,E,0.108,,060721,,,A*62
$GNGGA,175318.40,4856.79928,N,00229.87439,E,1,12,0.85,33.6,M,46.2,M,,*7D
$GNRMC,175318.60,A,4856.79928,N,00229.87438,E,0.125,,060721,,,A*6E
$GNGGA,175318.60,4856.79928,N,00229.87438,E,1,12,0.85,33.6,M,46.2,M,,*7E
$GNRMC,175318.80,A,4856.79928,N,00229.87434,E,0.117,,060721,,,A*6D
$GNGGA,175318.80,4856.79928,N,00229.87434,E,1,12,0.85,33.6,M,46.2,M,,*7C
$GNRMC,175319.00,A,4856.79927,N,00229.87429,E,0.170,,060721,,,A*66
$GNGGA,175319.00,4856.79927,N,00229.87429,E,1,12,0.85,33.5,M,46.2,M,,*75
$GNRMC,175319.20,A,4856.79926,N,00229.87425,E,0.165,,060721,,,A*6D
$GNGGA,175319.20,4856.79926,N,00229.87425,E,1,12,0.85,33.5,M,46.2,M,,*7A
$GNRMC,175319.40,A,4856.79926,N,00229.87426,E,0.082,,060721,,,A*60
$GNGGA,175319.40,4856.79926,N,00229.87426,E,1,12,0.85,33.5,M,46.2,M,,*7F
$GNRMC,175319.60,A,4856.79927,N,00229.87423,E,0.106,,060721,,,A*6B
$GNGGA,175319.60,4856.79927,N,00229.87423,E,1,12,0.85,33.5,M,46.2,M,,*79
$GNRMC,175319.80,A,4856.79926,N,00229.87419,E,0.097,,060721,,,A*64
$GNGGA,175319.80,4856.79926,N,00229.87419,E,1,12,0.96,33.4,M,46.2,M,,*7C
$GNRMC,175320.00,A,4856.79925,N,00229.87415,E,0.062,,060721,,,A*63
$GNGGA,175320.00,4856.79925,N,00229.87415,E,1,12,0.85,33.4,M,46.2,M,,*73
$GNRMC,175320.20,A,4856.79924,N,00229.87410,E,0.142,,060721,,,A*66
$GNGGA,175320.20,4856.79924,N,00229.87410,E,1,12,0.85,33.3,M,46.2,M,,*72
$GNRMC,175320.40,A,4856.79922,N,00229.87404,E,0.112,,060721,,,A*66
$GNGGA,175320.40,4856.79922,N,00229.87404,E,1,12,0.85,33.3,M,46.2,M,,*77
$GNRMC,175320.60,A,4856.79923,N,00229.87405,E,0.065,,060721,,,A*65
$GNGGA,175320.60,4856.79923,N,00229.87405,E,1,12,0.85,33.3,M,46.2,M,,*75
$GNRMC,175320.80,A,4856.79922,N,00229.87405,E,0.069,,060721,,,A*66
$GNGGA,175320.80,4856.79922,N,00229.87405,E,1,12,0.85,33.3,M,46.2,M,,*7A
$GNRMC,175321.00,A,4856.79922,N,00229.87402,E,0.008,,060721,,,A*6F
$GNGGA,175321.00,4856.79922,N,00229.87402,E,1,12,0.85,33.2,M,46.2,M,,*75
$GNRMC,175321.20,A,4856.79922,N,00229.87403,E,0.144,,060721,,,A*65
$GNGGA,175321.20,4856.79922,N,00229.87403,E,1,12,0.85,33.2,M,46.2,M,,*76
$GNRMC,175321.40,A,4856.79922,N,00229.87400,E,0.152,,060721,,,A*67
$GNGGA,175321.40,4856.79922,N,00229.87400,E,1,12,0.85,33.2,M,46.2,M,,*73
$GNRMC,175321.60,A,4856.79921,N,00229.87398,E,0.094,,060721,,,A*6B
$GNGGA,175321.60,4856.79921,N,00229.87398,E,1,12,0.85,33.2,M,46.2,M,,*74
$GNRMC,175321.80,A,4856.79920,N,00229.87392,E,0.076,,060721,,,A*62
$GNGGA,175321.80,4856.79920,N,00229.87392,E,1,12,0.85,33.1,M,46.2,M,,*72
$GNRMC,175322.00,A,4856.79920,N,00229.87391,E,0.061,,060721,,,A*6C
$GNGGA,175322.00,4856.79920,N,00229.87391,E,1,12,0.85,33.1,M,46.2,M,,*7A
$GNRMC,175322.20,A,4856.79920,N,00229.87389,E,0.060,,060721,,,A*66
$GNGGA,175322.20,4856.79920,N,00229.87389,E,1,12,0.77,33.1,M,46.2,M,,*7C
$GNRMC,175322.40,A,4856.79919,N,00229.87388,E,0.095,,060721,,,A*61
$GNGGA,175322.40,4856.79919,N,00229.87388,E,1,12,0.77,33.1,M,46.2,M,,*71
$GNRMC,175322.60,A,4856.79919,N,00229.87391,E,0.049,,060721,,,A*6A
$GNGGA,175322.60,4856.79919,N,00229.87391,E,1,12,0.77,33.1,M,46.2,M,,*7B
$GNRMC,175322.80,A,4856.79919,N,00229.87390,E,0.025,,060721,,,A*6F
$GNGGA,175322.80,4856.79919,N,00229.87390,E,1,12,0.87,33.1,M,46.2,M,,*7B
$GNRMC,175323.00,A,4856.79919,N,00229.87391,E,0.044,,060721,,,A*60
$GNGGA,175323.00,4856.79919,N,00229.87391,E,1,12,0.77,33.1,M,46.2,M,,*7C
$GNRMC,175323.20,A,4856.79920,N,00229.87392,E,0.021,,060721,,,A*68
$GNGGA,175323.20,4856.79920,N,00229.87392,E,1,12,0.77,33.1,M,46.2,M,,*77
$GNRMC,175323.40,A,4856.79919,N,00229.87390,E,0.031,,060721,,,A*67
$GNGGA,175323.40,4856.79919,N,00229.87390,E,1,12,0.77,33.1,M,46.2,M,,*79
$GNRMC,175323.60,A,4856.79918,N,00229.87387,E,0.144,,060721,,,A*61
$GNGGA,175323.60,4856.79918,N,00229.87387,E,1,12,0.77,33.1,M,46.2,M,,*7C
$GNRMC,175323.80,A,4856.79918,N,00229.87384,E,0.098,,060721,,,A*6C
$GNGGA,175323.80,4856.79918,N,00229.87384,E,1,12,0.77,33.1,M,46.2,M,,*71
$GNRMC,175324.00,A,4856.79917,N,00229.87380,E,0.174,,060721,,,A*6B
$GNGGA,175324.00,4856.79917,N,00229.87380,E,1,12,0.77,33.1,M,46.2,M,,*75
$GNRMC,175324.20,A,4856.79918,N,00229.87379,E,0.183,,060721,,,A*68
$GNGGA,175324.20,4856.79918,N,00229.87379,E,1,12,0.77,33.1,M,46.2,M,,*7E
$GNRMC,175324.40,A,4856.79917,N,00229.87378,E,0.125,,060721,,,A*6C
$GNGGA,175324.40,4856.79917,N,00229.87378,E,1,12,0.77,33.1,M,46.2,M,,*76
$GNRMC,175324.60,A,4856.79917,N,00229.87373,E,0.227,,060721,,,A*64
$GNGGA,175324.60,4856.79917,N,00229.87373,E,1,12,0.77,33.1,M,46.2,M,,*7F
$GNRMC,175324.80,A,4856.79915,N,00229.87373,E,0.171,,060721,,,A*68
$GNGGA,175324.80,4856.79915,N,00229.87373,E,1,12,0.77,33.1,M,46.2,M,,*73
$GNRMC,175325.00,A,4856.79917,N,00229.87377,E,0.071,,060721,,,A*66
$GNGGA,175325.00,4856.79917,N,00229.87377,E,1,12,0.77,33.1,M,46.2,M,,*7C
$GNRMC,175325.20,A,4856.79916,N,00229.87377,E,0.107,,060721,,,A*65
$GNGGA,175325.20,4856.79916,N,00229.87377,E,1,12,0.77,33.1,M,46.2,M,,*7F
$GNRMC,175325.40,A,4856.79917,N,00229.87374,E,0.180,,060721,,,A*6E
$GNGGA,175325.40,4856.79917,N,00229.87374,E,1,12,0.77,33.1,M,46.2,M,,*7B
$GNRMC,175325.60,A,4856.79916,N,00229.87376,E,0.104,,060721,,,A*63
$GNGGA,175325.60,4856.79916,N,00229.87376,E,1,12,0.77,33.1,M,46.2,M,,*7A
$GNRMC,175325.80,A,4856.79917,N,00229.87377,E,0.042,,060721,,,A*6E
$GNGGA,175325.80,4856.79917,N,00229.87377,E,1,12,0.77,33.1,M,46.2,M,,*74
$GNRMC,175326.00,A,4856.79917,N,00229.87374,E,0.070,,060721,,,A*67
$GNGGA,175326.00,4856.79917,N,00229.87374,E,1,12,0.77,33.1,M,46.2,M,,*7C
$GNRMC,175326.20,A,4856.79918,N,00229.87375,E,0.014,,060721,,,A*69
$GNGGA,175326.20,4856.79918,N,00229.87375,E,1,12,0.77,33.1,M,46.2,M,,*70
$GNRMC,175326.40,A,4856.79919,N,00229.87374,E,0.123,,060721,,,A*6A
$GNGGA,175326.40,4856.79919,N,00229.87374,E,1,12,0.77,33.1,M,46.2,M,,*76
$GNRMC,175326.60,A,4856.79919,N,00229.87374,E,0.034,,060721,,,A*6F
$GNGGA,175326.60,4856.79919,N,00229.87374,E,1,12,0.77,33.2,M,46.2,M,,*77
$GNRMC,175326.80,A,4856.79920,N,00229.87374,E,0.048,,060721,,,A*60
$GNGGA,175326.80,4856.79920,N,00229.87374,E,1,12,0.77,33.2,M,46.2,M,,*73
$GNRMC,175327.00,A,4856.79922,N,00229.87374,E,0.103,,060721,,,A*65
$GNGGA,175327.00,4856.79922,N,00229.87374,E,1,12,0.77,33.2,M,46.2,M,,*78
$GNRMC,175327.20,A,4856.79923,N,00229.87375,E,0.024,,060721,,,A*63
$GNGGA,175327.20,4856.79923,N,00229.87375,E,1,12,0.77,33.2,M,46.2,M,,*7A
$GNRMC,175327.40,A,4856.79924,N,00229.87379,E,0.087,,060721,,,A*67
$GNGGA,175327.40,4856.79924,N,00229.87379,E,1,12,0.77,33.3,M,46.2,M,,*76
$GNRMC,175327.60,A,4856.79925,N,00229.87381,E,0.129,,060721,,,A*66
$GNGGA,175327.60,4856.79925,N,00229.87381,E,1,12,0.77,33.3,M,46.2,M,,*72
$GNRMC,175327.80,A,4856.79925,N,00229.87384,E,0.106,,060721,,,A*60
$GNGGA,175327.80,4856.79925,N,00229.87384,E,1,12,0.77,33.3,M,46.2,M,,*79
$GNRMC,175328.00,A,4856.79926,N,00229.87387,E,0.084,,060721,,,A*6C
$GNGGA,175328.00,4856.79926,N,00229.87387,E,1,12,0.77,33.3,M,46.2,M,,*7E
$GNRMC,175328.20,A,4856.79926,N,00229.87388,E,0.106,,060721,,,A*6A
$GNGGA,175328.20,4856.79926,N,00229.87388,E,1,12,0.77,33.3,M,46.2,M,,*73
$GNRMC,175328.40,A,4856.79927,N,00229.87392,E,0.014,,060721,,,A*64
$GNGGA,175328.40,4856.79927,N,00229.87392,E,1,12,0.77,33.4,M,46.2,M,,*78
$GNRMC,175328.60,A,4856.79928,N,00229.87391,E,0.156,,060721,,,A*6D
$GNGGA,175328.60,4856.79928,N,00229.87391,E,1,12,0.77,33.4,M,46.2,M,,*76
$GNRMC,175328.80,A,4856.79929,N,00229.87392,E,0.182,,060721,,,A*68
$GNGGA,175328.80,4856.79929,N,00229.87392,E,1,12,0.77,33.4,M,46.2,M,,*7A
$GNRMC,175329.00,A,4856.79930,N,00229.87396,E,0.062,,060721,,,A*62
$GNGGA,175329.00,4856.79930,N,00229.87396,E,1,12,0.77,33.4,M,46.2,M,,*7F
$GNRMC,175329.20,A,4856.79931,N,00229.87393,E,0.186,,060721,,,A*6F
$GNGGA,175329.20,4856.79931,N,00229.87393,E,1,12,0.85,33.4,M,46.2,M,,*74
$GNRMC,175329.40,A,4856.79932,N,00229.87394,E,0.096,,060721,,,A*6D
$GNGGA,175329.40,4856.79932,N,00229.87394,E,1,12,0.85,33.4,M,46.2,M,,*76
$GNRMC,175329.60,A,4856.79933,N,00229.87393,E,0.057,,060721,,,A*64
$GNGGA,175329.60,4856.79933,N,00229.87393,E,1,12,0.85,33.4,M,46.2,M,,*72
$GNRMC,175329.80,A,4856.79933,N,00229.87395,E,0.046,,060721,,,A*6C
$GNGGA,175329.80,4856.79933,N,00229.87395,E,1,12,0.85,33.4,M,46.2,M,,*7A
$GNRMC,175330.00,A,4856.79933,N,00229.87395,E,0.159,,060721,,,A*63
$GNGGA,175330.00,4856.79933,N,00229.87395,E,1,12,0.85,33.4,M,46.2,M,,*7A
$GNRMC,175330.20,A,4856.79934,N,00229.87395,E,0.026,,060721,,,A*6F
$GNGGA,175330.20,4856.79934,N,00229.87395,E,1,12,0.85,33.4,M,46.2,M,,*7F
$GNRMC,175330.40,A,4856.79934,N,00229.87394,E,0.094,,060721,,,A*61
$GNGGA,175330.40,4856.79934,N,00229.87394,E,1,12,0.85,33.4,M,46.2,M,,*78
$GNRMC,175330.60,A,4856.79935,N,00229.87394,E,0.030,,060721,,,A*6C
$GNGGA,175330.60,4856.79935,N,00229.87394,E,1,12,0.85,33.4,M,46.2,M,,*7B
$GNRMC,175330.80,A,4856.79937,N,00229.87392,E,0.120,,060721,,,A*66
$GNGGA,175330.80,4856.79937,N,00229.87392,E,1,12,0.85,33.4,M,46.2,M,,*71
$GNRMC,175331.00,A,4856.79937,N,00229.87393,E,0.069,,060721,,,A*62
$GNGGA,175331.00,4856.79937,N,00229.87393,E,1,12,0.85,33.4,M,46.2,M,,*79
$GNRMC,175331.20,A,4856.79938,N,00229.87393,E,0.043,,060721,,,A*67
$GNGGA,175331.20,4856.79938,N,00229.87393,E,1,12,0.85,33.4,M,46.2,M,,*74
$GNRMC,175331.40,A,4856.79939,N,00229.87394,E,0.047,,060721,,,A*63
$GNGGA,175331.40,4856.79939,N,00229.87394,E,1,12,0.85,33.4,M,46.2,M,,*74
$GNRMC,175331.60,A,4856.79939,N,00229.87394,E,0.025,,060721,,,A*65
$GNGGA,175331.60,4856.79939,N,00229.87394,E,1,12,0.85,33.4,M,46.2,M,,*76
$GNRMC,175331.80,A,4856.79939,N,00229.87393,E,0.139,,060721,,,A*60
$GNGGA,175331.80,4856.79939,N,00229.87393,E,1,12,0.98,33.4,M,46.2,M,,*73
$GNRMC,175332.00,A,4856.79940,N,00229.87394,E,0.058,,060721,,,A*64
$GNGGA,175332.00,4856.79940,N,00229.87394,E,1,12,0.85,33.4,M,46.2,M,,*7D
$GNRMC,175332.20,A,4856.79941,N,00229.87394,E,0.101,,060721,,,A*6A
$GNGGA,175332.20,4856.79941,N,00229.87394,E,1,12,0.85,33.4,M,46.2,M,,*7E
$GNRMC,175332.40,A,4856.79942,N,00229.87396,E,0.041,,060721,,,A*68
$GNGGA,175332.40,4856.79942,N,00229.87396,E,1,12,0.85,33.4,M,46.2,M,,*79
$GNRMC,175332.60,A,4856.79942,N,00229.87400,E,0.069,,060721,,,A*68
$GNGGA,175332.60,4856.79942,N,00229.87400,E,1,12,0.85,33.4,M,46.2,M,,*73
$GNRMC,175332.80,A,4856.79943,N,00229.87401,E,0.116,,060721,,,A*6F
$GNGGA,175332.80,4856.79943,N,00229.87401,E,1,12,0.85,33.4,M,46.2,M,,*7D
$GNRMC,175333.00,A,4856.79943,N,00229.87402,E,0.056,,060721,,,A*60
$GNGGA,175333.00,4856.79943,N,00229.87402,E,1,12,0.85,33.4,M,46.2,M,,*77
$GNRMC,175333.20,A,4856.79945,N,00229.87402,E,0.132,,060721,,,A*67
$GNGGA,175333.20,4856.79945,N,00229.87402,E,1,12,0.77,33.4,M,46.2,M,,*7E
$GNRMC,175333.40,A,4856.79946,N,00229.87404,E,0.060,,060721,,,A*62
$GNGGA,175333.40,4856.79946,N,00229.87404,E,1,12,0.77,33.4,M,46.2,M,,*7D
$GNRMC,175333.60,A,4856.79947,N,00229.87406,E,0.038,,060721,,,A*6E
$GNGGA,175333.60,4856.79947,N,00229.87406,E,1,12,0.77,33.5,M,46.2,M,,*7D
$GNRMC,175333.80,A,4856.79947,N,00229.87411,E,0.163,,060721,,,A*69
$GNGGA,175333.80,4856.79947,N,00229.87411,E,1,12,0.77,33.5,M,46.2,M,,*75
$GNRMC,175334.00,A,4856.79949,N,00229.87413,E,0.094,,060721,,,A*63
$GNGGA,175334.00,4856.79949,N,00229.87413,E,1,12,0.77,33.5,M,46.2,M,,*76
$GNRMC,175334.20,A,4856.79950,N,00229.87417,E,0.167,,060721,,,A*60
$GNGGA,175334.20,4856.79950,N,00229.87417,E,1,12,0.77,33.5,M,46.2,M,,*78
$GNRMC,175334.40,A,4856.79952,N,00229.87417,E,0.099,,060721,,,A*64
$GNGGA,175334.40,4856.79952,N,00229.87417,E,1,12,0.85,33.5,M,46.2,M,,*71
$GNRMC,175334.60,A,4856.79953,N,00229.87416,E,0.031,,060721,,,A*64
$GNGGA,175334.60,4856.79953,N,00229.87416,E,1,12,0.85,33.5,M,46.2,M,,*73
$GNRMC,175334.80,A,4856.79953,N,00229.87418,E,0.158,,060721,,,A*6A
$GNGGA,175334.80,4856.79953,N,00229.87418,E,1,12,0.98,33.5,M,46.2,M,,*7F
$GNRMC,175335.00,A,4856.79954,N,00229.87417,E,0.033,,060721,,,A*67
$GNGGA,175335.00,4856.79954,N,00229.87417,E,1,12,0.98,33.5,M,46.2,M,,*7E
$GNRMC,175335.20,A,4856.79956,N,00229.87416,E,0.047,,060721,,,A*65
$GNGGA,175335.20,4856.79956,N,00229.87416,E,1,12,0.98,33.5,M,46.2,M,,*7F
$GNRMC,175335.40,A,4856.79957,N,00229.87416,E,0.032,,060721,,,A*60
$GNGGA,175335.40,4856.79957,N,00229.87416,E,1,12,0.98,33.6,M,46.2,M,,*7B
$GNRMC,175335.60,A,4856.79959,N,00229.87413,E,0.147,,060721,,,A*6A
$GNGGA,175335.60,4856.79959,N,00229.87413,E,1,12,0.98,33.5,M,46.2,M,,*71
$GNRMC,175335.80,A,4856.79960,N,00229.87413,E,0.060,,060721,,,A*6A
$GNGGA,175335.80,4856.79960,N,00229.87413,E,1,12,0.85,33.5,M,46.2,M,,*79
$GNRMC,175336.00,A,4856.79961,N,00229.87412,E,0.045,,060721,,,A*66
$GNGGA,175336.00,4856.79961,N,00229.87412,E,1,12,0.85,33.5,M,46.2,M,,*72
$GNRMC,175336.20,A,4856.79962,N,00229.87411,E,0.095,,060721,,,A*69
$GNGGA,175336.20,4856.79962,N,00229.87411,E,1,12,0.85,33.5,M,46.2,M,,*70
$GNRMC,175336.40,A,4856.79964,N,00229.87409,E,0.121,,060721,,,A*6E
$GNGGA,175336.40,4856.79964,N,00229.87409,E,1,12,0.85,33.5,M,46.2,M,,*79
$GNRMC,175336.60,A,4856.79964,N,00229.87409,E,0.021,,060721,,,A*6D
$GNGGA,175336.60,4856.79964,N,00229.87409,E,1,12,0.85,33.5,M,46.2,M,,*7B
$GNRMC,175336.80,A,4856.79965,N,00229.87409,E,0.093,,060721,,,A*6B
$GNGGA,175336.80,4856.79965,N,00229.87409,E,1,12,0.85,33.5,M,46.2,M,,*74
$GNRMC,175337.00,A,4856.79967,N,00229.87407,E,0.043,,060721,,,A*63
$GNGGA,175337.00,4856.79967,N,00229.87407,E,1,12,0.85,33.5,M,46.2,M,,*71
$GNRMC,175337.20,A,4856.79967,N,00229.87406,E,0.101,,060721,,,A*67
$GNGGA,175337.20,4856.79967,N,00229.87406,E,1,12,0.85,33.5,M,46.2,M,,*72
$GNRMC,175337.40,A,4856.79968,N,00229.87408,E,0.191,,060721,,,A*69
$GNGGA,175337.40,4856.79968,N,00229.87408,E,1,12,0.85,33.5,M,46.2,M,,*75
$GNRMC,175337.60,A,4856.79968,N,00229.87411,E,0.221,,060721,,,A*6B
$GNGGA,175337.60,4856.79968,N,00229.87411,E,1,12,0.85,33.5,M,46.2,M,,*7F
$GNRMC,175337.80,A,4856.79968,N,00229.87416,E,0.318,,060721,,,A*69
$GNGGA,175337.80,4856.79968,N,00229.87416,E,1,12,0.85,33.5,M,46.2,M,,*76
$GNRMC,175338.00,A,4856.79969,N,00229.87413,E,0.060,,060721,,,A*66
$GNGGA,175338.00,4856.79969,N,00229.87413,E,1,12,0.85,33.5,M,46.2,M,,*75
$GNRMC,175338.20,A,4856.79970,N,00229.87413,E,0.077,,060721,,,A*6A
$GNGGA,175338.20,4856.79970,N,00229.87413,E,1,12,0.85,33.5,M,46.2,M,,*7F
$GNRMC,175338.40,A,4856.79972,N,00229.87414,E,0.021,,060721,,,A*6A
$GNGGA,175338.40,4856.79972,N,00229.87414,E,1,12,0.85,33.5,M,46.2,M,,*7C
$GNRMC,175338.60,A,4856.79973,N,00229.87413,E,0.060,,060721,,,A*6B
$GNGGA,175338.60,4856.79973,N,00229.87413,E,1,12,0.85,33.5,M,46.2,M,,*78
$GNRMC,175338.80,A,4856.79974,N,00229.87413,E,0.046,,060721,,,A*66
$GNGGA,175338.80,4856.79974,N,00229.87413,E,1,12,0.85,33.6,M,46.2,M,,*72
$GNRMC,175339.00,A,4856.79974,N,00229.87412,E,0.083,,060721,,,A*67
$GNGGA,175339.00,4856.79974,N,00229.87412,E,1,12,0.85,33.5,M,46.2,M,,*79
$GNRMC,175339.20,A,4856.79975,N,00229.87411,E,0.087,,060721,,,A*63
$GNGGA,175339.20,4856.79975,N,00229.87411,E,1,12,0.85,33.5,M,46.2,M,,*79
$GNRMC,175339.40,A,4856.79975,N,00229.87410,E,0.064,,060721,,,A*69
$GNGGA,175339.40,4856.79975,N,00229.87410,E,1,12,0.85,33.5,M,46.2,M,,*7E
$GNRMC,175339.60,A,4856.79977,N,00229.87411,E,0.073,,060721,,,A*6E
$GNGGA,175339.60,4856.79977,N,00229.87411,E,1,12,0.85,33.5,M,46.2,M,,*7F
$GNRMC,175339.80,A,4856.79977,N,00229.87411,E,0.121,,060721,,,A*66
$GNGGA,175339.80,4856.79977,N,00229.87411,E,1,12,0.85,33.5,M,46.2,M,,*71
$GNRMC,175340.00,A,4856.79978,N,00229.87409,E,0.115,,060721,,,A*61
$GNGGA,175340.00,4856.79978,N,00229.87409,E,1,12,0.85,33.5,M,46.2,M,,*71
$GNRMC,175340.20,A,4856.79979,N,00229.87408,E,0.087,,060721,,,A*69
$GNGGA,175340.20,4856.79979,N,00229.87408,E,1,12,0.85,33.5,M,46.2,M,,*73
$GNRMC,175340.40,A,4856.79981,N,00229.87406,E,0.095,,060721,,,A*65
$GNGGA,175340.40,4856.79981,N,00229.87406,E,1,12,0.91,33.5,M,46.2,M,,*79
$GNRMC,175340.60,A,4856.79983,N,00229.87405,E,0.169,,060721,,,A*64
$GNGGA,175340.60,4856.79983,N,00229.87405,E,1,12,0.85,33.5,M,46.2,M,,*7F
$GNRMC,175340.80,A,4856.79984,N,00229.87403,E,0.107,,060721,,,A*63
$GNGGA,175340.80,4856.79984,N,00229.87403,E,1,12,0.85,33.5,M,46.2,M,,*70
$GNRMC,175341.00,A,4856.79985,N,00229.87405,E,0.131,,060721,,,A*68
$GNGGA,175341.00,4856.79985,N,00229.87405,E,1,12,0.85,33.5,M,46.2,M,,*7E
$GNRMC,175341.20,A,4856.79987,N,00229.87404,E,0.068,,060721,,,A*64
$GNGGA,175341.20,4856.79987,N,00229.87404,E,1,12,0.85,33.5,M,46.2,M,,*7F
$GNRMC,175341.40,A,4856.79988,N,00229.87405,E,0.154,,060721,,,A*62
$GNGGA,175341.40,4856.79988,N,00229.87405,E,1,12,0.85,33.5,M,46.2,M,,*77
$GNRMC,175341.60,A,4856.79989,N,00229.87406,E,0.122,,060721,,,A*63
$GNGGA,175341.60,4856.79989,N,00229.87406,E,1,12,0.85,33.6,M,46.2,M,,*74
$GNRMC,175341.80,A,4856.79990,N,00229.87405,E,0.132,,060721,,,A*67
$GNGGA,175341.80,4856.79990,N,00229.87405,E,1,12,0.85,33.5,M,46.2,M,,*72
$GNRMC,175342.00,A,4856.79991,N,00229.87405,E,0.097,,060721,,,A*63
$GNGGA,175342.00,4856.79991,N,00229.87405,E,1,12,0.85,33.6,M,46.2,M,,*7B
$GNRMC,175342.20,A,4856.79994,N,00229.87404,E,0.061,,060721,,,A*6C
$GNGGA,175342.20,4856.79994,N,00229.87404,E,1,12,0.85,33.6,M,46.2,M,,*7D
$GNRMC,175342.40,A,4856.79994,N,00229.87406,E,0.150,,060721,,,A*6B
$GNGGA,175342.40,4856.79994,N,00229.87406,E,1,12,0.85,33.6,M,46.2,M,,*79
$GNRMC,175342.60,A,4856.79996,N,00229.87404,E,0.014,,060721,,,A*68
$GNGGA,175342.60,4856.79996,N,00229.87404,E,1,12,0.85,33.6,M,46.2,M,,*7B
$GNRMC,175342.80,A,4856.79997,N,00229.87402,E,0.070,,060721,,,A*63
$GNGGA,175342.80,4856.79997,N,00229.87402,E,1,12,0.85,33.6,M,46.2,M,,*72
$GNRMC,175343.00,A,4856.79998,N,00229.87398,E,0.041,,060721,,,A*63
$GNGGA,175343.00,4856.79998,N,00229.87398,E,1,12,0.85,33.6,M,46.2,M,,*70
$GNRMC,175343.20,A,4856.79999,N,00229.87399,E,0.089,,060721,,,A*65
$GNGGA,175343.20,4856.79999,N,00229.87399,E,1,12,0.85,33.6,M,46.2,M,,*72
$GNRMC,175343.40,A,4856.80000,N,00229.87398,E,0.030,,060721,,,A*6F
$GNGGA,175343.40,4856.80000,N,00229.87398,E,1,12,0.85,33.6,M,46.2,M,,*7A
$GNRMC,175343.60,A,4856.80002,N,00229.87396,E,0.096,,060721,,,A*6D
$GNGGA,175343.60,4856.80002,N,00229.87396,E,1,12,0.85,33.7,M,46.2,M,,*75
$GNRMC,175343.80,A,4856.80004,N,00229.87394,E,0.124,,060721,,,A*6F
$GNGGA,175343.80,4856.80004,N,00229.87394,E,1,12,0.85,33.7,M,46.2,M,,*7F
$GNRMC,175344.00,A,4856.80006,N,00229.87388,E,0.227,,060721,,,A*6F
$GNGGA,175344.00,4856.80006,N,00229.87388,E,1,12,0.85,33.7,M,46.2,M,,*7F
$GNRMC,175344.20,A,4856.80006,N,00229.87388,E,0.104,,060721,,,A*6F
$GNGGA,175344.20,4856.80006,N,00229.87388,E,1,12,0.85,33.7,M,46.2,M,,*7D
$GNRMC,175344.40,A,4856.80006,N,00229.87389,E,0.083,,060721,,,A*66
$GNGGA,175344.40,4856.80006,N,00229.87389,E,1,12,0.85,33.7,M,46.2,M,,*7A
$GNRMC,175344.60,A,4856.80007,N,00229.87388,E,0.076,,060721,,,A*6E
$GNGGA,175344.60,4856.80007,N,00229.87388,E,1,12,0.85,33.7,M,46.2,M,,*78
$GNRMC,175344.80,A,4856.80008,N,00229.87387,E,0.035,,060721,,,A*67
$GNGGA,175344.80,4856.80008,N,00229.87387,E,1,12,0.85,33.7,M,46.2,M,,*76
$GNRMC,175345.00,A,4856.80009,N,00229.87386,E,0.090,,060721,,,A*61
$GNGGA,175345.00,4856.80009,N,00229.87386,E,1,12,0.85,33.7,M,46.2,M,,*7F
$GNRMC,175345.20,A,4856.80011,N,00229.87385,E,0.098,,060721,,,A*61
$GNGGA,175345.20,4856.80011,N,00229.87385,E,1,12,0.85,33.7,M,46.2,M,,*77
$GNRMC,175345.40,A,4856.80012,N,00229.87387,E,0.114,,060721,,,A*63
$GNGGA,175345.40,4856.80012,N,00229.87387,E,1,12,0.85,33.7,M,46.2,M,,*70
$GNRMC,175345.60,A,4856.80014,N,00229.87387,E,0.078,,060721,,,A*6C
$GNGGA,175345.60,4856.80014,N,00229.87387,E,1,12,0.85,33.7,M,46.2,M,,*74
$GNRMC,175345.80,A,4856.80015,N,00229.87384,E,0.041,,060721,,,A*6A
$GNGGA,175345.80,4856.80015,N,00229.87384,E,1,12,0.85,33.7,M,46.2,M,,*78
$GNRMC,175346.00,A,4856.80016,N,00229.87382,E,0.117,,060721,,,A*66
$GNGGA,175346.00,4856.80016,N,00229.87382,E,1,12,0.85,33.7,M,46.2,M,,*76
$GNRMC,175346.20,A,4856.80016,N,00229.87381,E,0.053,,060721,,,A*66
$GNGGA,175346.20,4856.80016,N,00229.87381,E,1,12,0.85,33.7,M,46.2,M,,*77
$GNRMC,175346.40,A,4856.80017,N,00229.87381,E,0.030,,060721,,,A*64
$GNGGA,175346.40,4856.80017,N,00229.87381,E,1,12,0.85,33.7,M,46.2,M,,*70
$GNRMC,175346.60,A,4856.80017,N,00229.87378,E,0.071,,060721,,,A*65
$GNGGA,175346.60,4856.80017,N,00229.87378,E,1,12,0.85,33.7,M,46.2,M,,*74
$GNRMC,175346.80,A,4856.80017,N,00229.87377,E,0.026,,060721,,,A*66
$GNGGA,175346.80,4856.80017,N,00229.87377,E,1,12,0.85,33.7,M,46.2,M,,*75
$GNRMC,175347.00,A,4856.80017,N,00229.87376,E,0.069,,060721,,,A*65
$GNGGA,175347.00,4856.80017,N,00229.87376,E,1,12,0.77,33.7,M,46.2,M,,*70
$GNRMC,175347.20,A,4856.80018,N,00229.87377,E,0.139,,060721,,,A*6D
$GNGGA,175347.20,4856.80018,N,00229.87377,E,1,12,0.77,33.6,M,46.2,M,,*7D
$GNRMC,175347.40,A,4856.80019,N,00229.87377,E,0.089,,060721,,,A*60
$GNGGA,175347.40,4856.80019,N,00229.87377,E,1,12,0.77,33.6,M,46.2,M,,*7A
$GNRMC,175347.60,A,4856.80019,N,00229.87376,E,0.053,,060721,,,A*64
$GNGGA,175347.60,4856.80019,N,00229.87376,E,1,12,0.77,33.6,M,46.2,M,,*79
$GNRMC,175347.80,A,4856.80019,N,00229.87375,E,0.081,,060721,,,A*66
$GNGGA,175347.80,4856.80019,N,00229.87375,E,1,12,0.77,33.6,M,46.2,M,,*74
$GNRMC,175348.00,A,4856.80019,N,00229.87374,E,0.069,,060721,,,A*66
$GNGGA,175348.00,4856.80019,N,00229.87374,E,1,12,0.77,33.6,M,46.2,M,,*72
$GNRMC,175348.20,A,4856.80019,N,00229.87373,E,0.070,,060721,,,A*6B
$GNGGA,175348.20,4856.80019,N,00229.87373,E,1,12,0.77,33.6,M,46.2,M,,*77
$GNRMC,175348.40,A,4856.80019,N,00229.87373,E,0.069,,060721,,,A*65
$GNGGA,175348.40,4856.80019,N,00229.87373,E,1,12,0.77,33.6,M,46.2,M,,*71
$GNRMC,175348.60,A,4856.80018,N,00229.87374,E,0.154,,060721,,,A*6E
$GNGGA,175348.60,4856.80018,N,00229.87374,E,1,12,0.77,33.5,M,46.2,M,,*76
$GNRMC,175348.80,A,4856.80018,N,00229.87370,E,0.101,,060721,,,A*64
$GNGGA,175348.80,4856.80018,N,00229.87370,E,1,12,0.77,33.5,M,46.2,M,,*7C
$GNRMC,175349.00,A,4856.80018,N,00229.87370,E,0.049,,060721,,,A*60
$GNGGA,175349.00,4856.80018,N,00229.87370,E,1,12,0.77,33.5,M,46.2,M,,*75
$GNRMC,175349.20,A,4856.80018,N,00229.87369,E,0.044,,060721,,,A*67
$GNGGA,175349.20,4856.80018,N,00229.87369,E,1,12,0.77,33.4,M,46.2,M,,*7E
$GNRMC,175349.40,A,4856.80019,N,00229.87367,E,0.086,,060721,,,A*60
$GNGGA,175349.40,4856.80019,N,00229.87367,E,1,12,0.77,33.4,M,46.2,M,,*77
$GNRMC,175349.60,A,4856.80020,N,00229.87367,E,0.026,,060721,,,A*62
$GNGGA,175349.60,4856.80020,N,00229.87367,E,1,12,0.77,33.4,M,46.2,M,,*7F
$GNRMC,175349.80,A,4856.80020,N,00229.87365,E,0.024,,060721,,,A*6C
$GNGGA,175349.80,4856.80020,N,00229.87365,E,1,12,0.85,33.4,M,46.2,M,,*7E
$GNRMC,175350.00,A,4856.80021,N,00229.87366,E,0.061,,060721,,,A*6F
$GNGGA,175350.00,4856.80021,N,00229.87366,E,1,12,0.77,33.5,M,46.2,M,,*70
$GNRMC,175350.20,A,4856.80021,N,00229.87363,E,0.106,,060721,,,A*68
$GNGGA,175350.20,4856.80021,N,00229.87363,E,1,12,0.77,33.5,M,46.2,M,,*77
$GNRMC,175350.40,A,4856.80022,N,00229.87362,E,0.022,,060721,,,A*6B
$GNGGA,175350.40,4856.80022,N,00229.87362,E,1,12,0.77,33.5,M,46.2,M,,*73
$GNRMC,175350.60,A,4856.80022,N,00229.87363,E,0.102,,060721,,,A*6B
$GNGGA,175350.60,4856.80022,N,00229.87363,E,1,12,0.77,33.5,M,46.2,M,,*70
$GNRMC,175350.80,A,4856.80023,N,00229.87363,E,0.051,,060721,,,A*63
$GNGGA,175350.80,4856.80023,N,00229.87363,E,1,12,0.77,33.5,M,46.2,M,,*7F
$GNRMC,175351.00,A,4856.80023,N,00229.87364,E,0.158,,060721,,,A*65
$GNGGA,175351.00,4856.80023,N,00229.87364,E,1,12,0.77,33.5,M,46.2,M,,*71
$GNRMC,175351.20,A,4856.80024,N,00229.87366,E,0.236,,060721,,,A*69
$GNGGA,175351.20,4856.80024,N,00229.87366,E,1,12,0.77,33.6,M,46.2,M,,*75
$GNRMC,175351.40,A,4856.80024,N,00229.87366,E,0.167,,060721,,,A*68
$GNGGA,175351.40,4856.80024,N,00229.87366,E,1,12,0.77,33.6,M,46.2,M,,*73
$GNRMC,175351.60,A,4856.80026,N,00229.87367,E,0.194,,060721,,,A*65
$GNGGA,175351.60,4856.80026,N,00229.87367,E,1,12,0.77,33.6,M,46.2,M,,*72
$GNRMC,175351.80,A,4856.80027,N,00229.87369,E,0.199,,060721,,,A*69
$GNGGA,175351.80,4856.80027,N,00229.87369,E,1,12,0.77,33.6,M,46.2,M,,*73
$GNRMC,175352.00,A,4856.80027,N,00229.87366,E,0.054,,060721,,,A*6D
$GNGGA,175352.00,4856.80027,N,00229.87366,E,1,12,0.77,33.6,M,46.2,M,,*77
$GNRMC,175352.20,A,4856.80028,N,00229.87367,E,0.080,,060721,,,A*68
$GNGGA,175352.20,4856.80028,N,00229.87367,E,1,12,0.77,33.6,M,46.2,M,,*7B
$GNRMC,175352.40,A,4856.80027,N,00229.87366,E,0.096,,060721,,,A*67
$GNGGA,175352.40,4856.80027,N,00229.87366,E,1,12,0.77,33.6,M,46.2,M,,*73
$GNRMC,175352.60,A,4856.80028,N,00229.87363,E,0.181,,060721,,,A*68
$GNGGA,175352.60,4856.80028,N,00229.87363,E,1,12,0.87,33.6,M,46.2,M,,*74
$GNRMC,175352.80,A,4856.80028,N,00229.87363,E,0.049,,060721,,,A*63
$GNGGA,175352.80,4856.80028,N,00229.87363,E,1,12,0.98,33.6,M,46.2,M,,*74
$GNRMC,175353.00,A,4856.80028,N,00229.87361,E,0.137,,060721,,,A*60
$GNGGA,175353.00,4856.80028,N,00229.87361,E,1,12,0.87,33.6,M,46.2,M,,*71
$GNRMC,175353.20,A,4856.80027,N,00229.87358,E,0.145,,060721,,,A*62
$GNGGA,175353.20,4856.80027,N,00229.87358,E,1,12,0.87,33.5,M,46.2,M,,*75
$GNRMC,175353.40,A,4856.80027,N,00229.87359,E,0.100,,060721,,,A*64
$GNGGA,175353.40,4856.80027,N,00229.87359,E,1,12,0.87,33.6,M,46.2,M,,*71
$GNRMC,175353.60,A,4856.80026,N,00229.87360,E,0.091,,060721,,,A*64
$GNGGA,175353.60,4856.80026,N,00229.87360,E,1,12,0.87,33.5,M,46.2,M,,*7B
$GNRMC,175353.80,A,4856.80025,N,00229.87357,E,0.074,,060721,,,A*66
$GNGGA,175353.80,4856.80025,N,00229.87357,E,1,12,0.87,33.5,M,46.2,M,,*72
$GNRMC,175354.00,A,4856.80026,N,00229.87359,E,0.136,,060721,,,A*63
$GNGGA,175354.00,4856.80026,N,00229.87359,E,1,12,0.87,33.5,M,46.2,M,,*70
$GNRMC,175354.20,A,4856.80026,N,00229.87358,E,0.046,,060721,,,A*66
$GNGGA,175354.20,4856.80026,N,00229.87358,E,1,12,0.87,33.5,M,46.2,M,,*73
$GNRMC,175354.40,A,4856.80025,N,00229.87358,E,0.087,,060721,,,A*6E
$GNGGA,175354.40,4856.80025,N,00229.87358,E,1,12,0.87,33.5,M,46.2,M,,*76
$GNRMC,175354.60,A,4856.80025,N,00229.87358,E,0.155,,060721,,,A*62
$GNGGA,175354.60,4856.80025,N,00229.87358,E,1,12,0.87,33.5,M,46.2,M,,*74
$GNRMC,175354.80,A,4856.80025,N,00229.87357,E,0.044,,060721,,,A*62
$GNGGA,175354.80,4856.80025,N,00229.87357,E,1,12,0.87,33.4,M,46.2,M,,*74
$GNRMC,175355.00,A,4856.80025,N,00229.87359,E,0.085,,060721,,,A*68
$GNGGA,175355.00,4856.80025,N,00229.87359,E,1,12,0.87,33.5,M,46.2,M,,*72
$GNRMC,175355.20,A,4856.80024,N,00229.87358,E,0.078,,060721,,,A*68
$GNGGA,175355.20,4856.80024,N,00229.87358,E,1,12,0.87,33.5,M,46.2,M,,*70
$GNRMC,175355.40,A,4856.80025,N,00229.87360,E,0.146,,060721,,,A*68
$GNGGA,175355.40,4856.80025,N,00229.87360,E,1,12,0.87,33.5,M,46.2,M,,*7C
$GNRMC,175355.60,A,4856.80024,N,00229.87359,E,0.087,,060721,,,A*6D
$GNGGA,175355.60,4856.80024,N,00229.87359,E,1,12,0.87,33.5,M,46.2,M,,*75
$GNRMC,175355.80,A,4856.80024,N,00229.87360,E,0.098,,060721,,,A*67
$GNGGA,175355.80,4856.80024,N,00229.87360,E,1,12,0.98,33.5,M,46.2,M,,*7F
$GNRMC,175356.00,A,4856.80024,N,00229.87359,E,0.087,,060721,,,A*68
$GNGGA,175356.00,4856.80024,N,00229.87359,E,1,12,0.98,33.4,M,46.2,M,,*7F
$GNRMC,175356.20,A,4856.80024,N,00229.87357,E,0.050,,060721,,,A*6E
$GNGGA,175356.20,4856.80024,N,00229.87357,E,1,12,0.98,33.4,M,46.2,M,,*73
$GNRMC,175356.40,A,4856.80024,N,00229.87356,E,0.054,,060721,,,A*6D
$GNGGA,175356.40,4856.80024,N,00229.87356,E,1,12,0.87,33.4,M,46.2,M,,*7A
$GNRMC,175356.60,A,4856.80023,N,00229.87356,E,0.092,,060721,,,A*62
$GNGGA,175356.60,4856.80023,N,00229.87356,E,1,12,0.87,33.4,M,46.2,M,,*7F
$GNRMC,175356.80,A,4856.80022,N,00229.87354,E,0.051,,060721,,,A*60
$GNGGA,175356.80,4856.80022,N,00229.87354,E,1,12,0.87,33.4,M,46.2,M,,*72
$GNRMC,175357.00,A,4856.80023,N,00229.87352,E,0.083,,060721,,,A*61
$GNGGA,175357.00,4856.80023,N,00229.87352,E,1,12,0.87,33.4,M,46.2,M,,*7C
$GNRMC,175357.20,A,4856.80022,N,00229.87351,E,0.025,,060721,,,A*6D
$GNGGA,175357.20,4856.80022,N,00229.87351,E,1,12,0.87,33.4,M,46.2,M,,*7C
$GNRMC,175357.40,A,4856.80021,N,00229.87352,E,0.212,,060721,,,A*6D
$GNGGA,175357.40,4856.80021,N,00229.87352,E,1,12,0.87,33.4,M,46.2,M,,*7A
$GNRMC,175357.60,A,4856.80021,N,00229.87352,E,0.129,,060721,,,A*64
$GNGGA,175357.60,4856.80021,N,00229.87352,E,1,12,0.87,33.3,M,46.2,M,,*7F
$GNRMC,175357.80,A,4856.80020,N,00229.87353,E,0.207,,060721,,,A*65
$GNGGA,175357.80,4856.80020,N,00229.87353,E,1,12,0.87,33.3,M,46.2,M,,*71
$GNRMC,175358.00,A,4856.80020,N,00229.87351,E,0.029,,060721,,,A*6E
$GNGGA,175358.00,4856.80020,N,00229.87351,E,1,12,0.87,33.3,M,46.2,M,,*74
$GNRMC,175358.20,A,4856.80020,N,00229.87347,E,0.095,,060721,,,A*6C
$GNGGA,175358.20,4856.80020,N,00229.87347,E,1,12,0.87,33.3,M,46.2,M,,*71
$GNRMC,175358.40,A,4856.80019,N,00229.87347,E,0.061,,060721,,,A*6B
$GNGGA,175358.40,4856.80019,N,00229.87347,E,1,12,0.87,33.2,M,46.2,M,,*7C
$GNRMC,175358.60,A,4856.80018,N,00229.87345,E,0.069,,060721,,,A*62
$GNGGA,175358.60,4856.80018,N,00229.87345,E,1,12,0.87,33.2,M,46.2,M,,*7D
$GNRMC,175358.80,A,4856.80018,N,00229.87341,E,0.118,,060721,,,A*6F
$GNGGA,175358.80,4856.80018,N,00229.87341,E,1,12,0.87,33.2,M,46.2,M,,*77
$GNRMC,175359.00,A,4856.80018,N,00229.87338,E,0.141,,060721,,,A*64
$GNGGA,175359.00,4856.80018,N,00229.87338,E,1,12,0.87,33.2,M,46.2,M,,*70
$GNRMC,175359.20,A,4856.80018,N,00229.87338,E,0.023,,060721,,,A*63
$GNGGA,175359.20,4856.80018,N,00229.87338,E,1,12,0.87,33.2,M,46.2,M,,*72
$GNRMC,175359.40,A,4856.80017,N,00229.87336,E,0.105,,060721,,,A*61
$GNGGA,175359.40,4856.80017,N,00229.87336,E,1,12,0.87,33.2,M,46.2,M,,*75
$GNRMC,175359.60,A,4856.80016,N,00229.87335,E,0.021,,060721,,,A*66
$GNGGA,175359.60,4856.80016,N,00229.87335,E,1,12,0.87,33.1,M,46.2,M,,*76
$GNRMC,175359.80,A,4856.80016,N,00229.87332,E,0.131,,060721,,,A*6F
$GNGGA,175359.80,4856.80016,N,00229.87332,E,1,12,0.87,33.1,M,46.2,M,,*7F
$GNRMC,175400.00,A,4856.80017,N,00229.87330,E,0.119,,060721,,,A*65
$GNGGA,175400.00,4856.80017,N,00229.87330,E,1,12,0.87,33.1,M,46.2,M,,*7F
$GNRMC,175400.20,A,4856.80016,N,00229.87330,E,0.009,,060721,,,A*66
$GNGGA,175400.20,4856.80016,N,00229.87330,E,1,12,0.87,33.1,M,46.2,M,,*7C
$GNRMC,175400.40,A,4856.80015,N,00229.87329,E,0.088,,060721,,,A*62
$GNGGA,175400.40,4856.80015,N,00229.87329,E,1,12,0.87,33.1,M,46.2,M,,*71
$GNRMC,175400.60,A,4856.80015,N,00229.87330,E,0.131,,060721,,,A*6B
$GNGGA,175400.60,4856.80015,N,00229.87330,E,1,12,0.87,33.1,M,46.2,M,,*7B
$GNRMC,175400.80,A,4856.80015,N,00229.87328,E,0.049,,060721,,,A*62
$GNGGA,175400.80,4856.80015,N,00229.87328,E,1,12,0.87,33.0,M,46.2,M,,*7D
$GNRMC,175401.00,A,4856.80015,N,00229.87328,E,0.099,,060721,,,A*66
$GNGGA,175401.00,4856.80015,N,00229.87328,E,1,12,0.87,33.0,M,46.2,M,,*74
$GNRMC,175401.20,A,4856.80014,N,00229.87325,E,0.070,,060721,,,A*6F
$GNGGA,175401.20,4856.80014,N,00229.87325,E,1,12,0.87,33.0,M,46.2,M,,*7A
$GNRMC,175401.40,A,4856.80014,N,00229.87323,E,0.094,,060721,,,A*65
$GNGGA,175401.40,4856.80014,N,00229.87323,E,1,12,0.87,33.0,M,46.2,M,,*7A
$GNRMC,175401.60,A,4856.80014,N,00229.87325,E,0.173,,060721,,,A*69
$GNGGA,175401.60,4856.80014,N,00229.87325,E,1,12,0.87,33.0,M,46.2,M,,*7E
$GNRMC,175401.80,A,4856.80012,N,00229.87324,E,0.151,,060721,,,A*60
$GNGGA,175401.80,4856.80012,N,00229.87324,E,1,12,0.87,33.0,M,46.2,M,,*77
$GNRMC,175402.00,A,4856.80012,N,00229.87324,E,0.161,,060721,,,A*68
$GNGGA,175402.00,4856.80012,N,00229.87324,E,1,12,0.87,32.9,M,46.2,M,,*74
$GNRMC,175402.20,A,4856.80011,N,00229.87320,E,0.094,,060721,,,A*66
$GNGGA,175402.20,4856.80011,N,00229.87320,E,1,12,0.87,32.9,M,46.2,M,,*71
$GNRMC,175402.40,A,4856.80010,N,00229.87318,E,0.052,,060721,,,A*60
$GNGGA,175402.40,4856.80010,N,00229.87318,E,1,12,0.87,32.9,M,46.2,M,,*7D
$GNRMC,175402.60,A,4856.80010,N,00229.87317,E,0.005,,060721,,,A*6F
$GNGGA,175402.60,4856.80010,N,00229.87317,E,1,12,0.87,32.9,M,46.2,M,,*70
$GNRMC,175402.80,A,4856.80009,N,00229.87312,E,0.191,,060721,,,A*60
$GNGGA,175402.80,4856.80009,N,00229.87312,E,1,12,0.87,32.9,M,46.2,M,,*73
$GNRMC,175403.00,A,4856.80008,N,00229.87311,E,0.070,,060721,,,A*65
$GNGGA,175403.00,4856.80008,N,00229.87311,E,1,12,0.87,32.8,M,46.2,M,,*79
$GNRMC,175403.20,A,4856.80008,N,00229.87310,E,0.139,,060721,,,A*6A
$GNGGA,175403.20,4856.80008,N,00229.87310,E,1,12,0.87,32.8,M,46.2,M,,*7A
$GNRMC,175403.40,A,4856.80007,N,00229.87309,E,0.059,,060721,,,A*6C
$GNGGA,175403.40,4856.80007,N,00229.87309,E,1,12,0.87,32.8,M,46.2,M,,*7B
$GNRMC,175403.60,A,4856.80007,N,00229.87308,E,0.030,,060721,,,A*60
$GNGGA,175403.60,4856.80007,N,00229.87308,E,1,12,0.87,32.8,M,46.2,M,,*78
$GNRMC,175403.80,A,4856.80007,N,00229.87306,E,0.060,,060721,,,A*65
$GNGGA,175403.80,4856.80007,N,00229.87306,E,1,12,0.87,32.8,M,46.2,M,,*78
$GNRMC,175404.00,A,4856.80006,N,00229.87304,E,0.017,,060721,,,A*69
$GNGGA,175404.00,4856.80006,N,00229.87304,E,1,12,0.87,32.7,M,46.2,M,,*7B
$GNRMC,175404.20,A,4856.80006,N,00229.87305,E,0.087,,060721,,,A*63
$GNGGA,175404.20,4856.80006,N,00229.87305,E,1,12,0.87,32.7,M,46.2,M,,*78
$GNRMC,175404.40,A,4856.80004,N,00229.87305,E,0.146,,060721,,,A*6B
$GNGGA,175404.40,4856.80004,N,00229.87305,E,1,12,0.87,32.7,M,46.2,M,,*7C
$GNRMC,175404.60,A,4856.80005,N,00229.87305,E,0.062,,060721,,,A*6F
$GNGGA,175404.60,4856.80005,N,00229.87305,E,1,12,0.87,32.8,M,46.2,M,,*70
$GNRMC,175404.80,A,4856.80004,N,00229.87303,E,0.031,,060721,,,A*60
$GNGGA,175404.80,4856.80004,N,00229.87303,E,1,12,0.87,32.7,M,46.2,M,,*76
$GNRMC,175405.00,A,4856.80004,N,00229.87303,E,0.079,,060721,,,A*65
$GNGGA,175405.00,4856.80004,N,00229.87303,E,1,12,0.87,32.7,M,46.2,M,,*7F
$GNRMC,175405.20,A,4856.80004,N,00229.87304,E,0.107,,060721,,,A*68
$GNGGA,175405.20,4856.80004,N,00229.87304,E,1,12,0.87,32.7,M,46.2,M,,*7A
$GNRMC,175405.40,A,4856.80004,N,00229.87305,E,0.190,,060721,,,A*61
$GNGGA,175405.40,4856.80004,N,00229.87305,E,1,12,0.87,32.8,M,46.2,M,,*72
$GNRMC,175405.60,A,4856.80003,N,00229.87305,E,0.125,,060721,,,A*6A
$GNGGA,175405.60,4856.80003,N,00229.87305,E,1,12,0.87,32.8,M,46.2,M,,*77
$GNRMC,175405.80,A,4856.80002,N,00229.87304,E,0.130,,060721,,,A*60
$GNGGA,175405.80,4856.80002,N,00229.87304,E,1,12,0.87,32.8,M,46.2,M,,*79
$GNRMC,175406.00,A,4856.80002,N,00229.87304,E,0.037,,060721,,,A*6D
$GNGGA,175406.00,4856.80002,N,00229.87304,E,1,12,0.87,32.8,M,46.2,M,,*72
$GNRMC,175406.20,A,4856.80000,N,00229.87302,E,0.074,,060721,,,A*6C
$GNGGA,175406.20,4856.80000,N,00229.87302,E,1,12,0.87,32.7,M,46.2,M,,*7B
$GNRMC,175406.40,A,4856.80000,N,00229.87301,E,0.056,,060721,,,A*69
$GNGGA,175406.40,4856.80000,N,00229.87301,E,1,12,0.87,32.7,M,46.2,M,,*7E
$GNRMC,175406.60,A,4856.79999,N,00229.87299,E,0.106,,060721,,,A*60
$GNGGA,175406.60,4856.79999,N,00229.87299,E,1,12,0.87,32.7,M,46.2,M,,*73
$GNRMC,175406.80,A,4856.79999,N,00229.87298,E,0.046,,060721,,,A*6A
$GNGGA,175406.80,4856.79999,N,00229.87298,E,1,12,0.87,32.7,M,46.2,M,,*7C
$GNRMC,175407.00,A,4856.79998,N,00229.87298,E,0.027,,060721,,,A*65
$GNGGA,175407.00,4856.79998,N,00229.87298,E,1,12,0.87,32.7,M,46.2,M,,*74
$GNRMC,175407.20,A,4856.79998,N,00229.87297,E,0.055,,060721,,,A*6D
$GNGGA,175407.20,4856.79998,N,00229.87297,E,1,12,0.87,32.7,M,46.2,M,,*79
$GNRMC,175407.40,A,4856.79997,N,00229.87296,E,0.077,,060721,,,A*65
$GNGGA,175407.40,4856.79997,N,00229.87296,E,1,12,0.87,32.7,M,46.2,M,,*71
$GNRMC,175407.60,A,4856.79997,N,00229.87296,E,0.106,,060721,,,A*60
$GNGGA,175407.60,4856.79997,N,00229.87296,E,1,12,0.87,32.7,M,46.2,M,,*73
$GNRMC,175407.80,A,4856.79996,N,00229.87299,E,0.182,,060721,,,A*6C
$GNGGA,175407.80,4856.79996,N,00229.87299,E,1,12,0.87,32.7,M,46.2,M,,*73
$GNRMC,175408.00,A,4856.79995,N,00229.87299,E,0.103,,060721,,,A*61
$GNGGA,175408.00,4856.79995,N,00229.87299,E,1,12,0.87,32.7,M,46.2,M,,*77
$GNRMC,175408.20,A,4856.79995,N,00229.87299,E,0.036,,060721,,,A*64
$GNGGA,175408.20,4856.79995,N,00229.87299,E,1,12,0.87,32.7,M,46.2,M,,*75
$GNRMC,175408.40,A,4856.79994,N,00229.87300,E,0.148,,060721,,,A*6A
$GNGGA,175408.40,4856.79994,N,00229.87300,E,1,12,0.87,32.7,M,46.2,M,,*73
$GNRMC,175408.60,A,4856.79994,N,00229.87296,E,0.153,,060721,,,A*6C
$GNGGA,175408.60,4856.79994,N,00229.87296,E,1,12,0.87,32.7,M,46.2,M,,*7F
$GNRMC,175408.80,A,4856.79994,N,00229.87293,E,0.140,,060721,,,A*65
$GNGGA,175408.80,4856.79994,N,00229.87293,E,1,12,0.87,32.7,M,46.2,M,,*74
$GNRMC,175409.00,A,4856.79992,N,00229.87290,E,0.190,,060721,,,A*64
$GNGGA,175409.00,4856.79992,N,00229.87290,E,1,12,0.87,32.7,M,46.2,M,,*78
$GNRMC,175409.20,A,4856.79992,N,00229.87290,E,0.186,,060721,,,A*61
$GNGGA,175409.20,4856.79992,N,00229.87290,E,1,12,0.87,32.7,M,46.2,M,,*7A
$GNRMC,175409.40,A,4856.79991,N,00229.87289,E,0.240,,060721,,,A*65
$GNGGA,175409.40,4856.79991,N,00229.87289,E,1,12,0.87,32.7,M,46.2,M,,*77
$GNRMC,175409.60,A,4856.79990,N,00229.87291,E,0.174,,060721,,,A*6B
$GNGGA,175409.60,4856.79990,N,00229.87291,E,1,12,0.87,32.7,M,46.2,M,,*7D
$GNRMC,175409.80,A,4856.79990,N,00229.87295,E,0.056,,060721,,,A*60
$GNGGA,175409.80,4856.79990,N,00229.87295,E,1,12,0.87,32.7,M,46.2,M,,*77
$GNRMC,175410.00,A,4856.79989,N,00229.87292,E,0.150,,060721,,,A*68
$GNGGA,175410.00,4856.79989,N,00229.87292,E,1,12,0.87,32.6,M,46.2,M,,*79
$GNRMC,175410.20,A,4856.79988,N,00229.87291,E,0.160,,060721,,,A*6B
$GNGGA,175410.20,4856.79988,N,00229.87291,E,1,12,0.87,32.6,M,46.2,M,,*79
$GNRMC,175410.40,A,4856.79987,N,00229.87291,E,0.105,,060721,,,A*61
$GNGGA,175410.40,4856.79987,N,00229.87291,E,1,12,0.87,32.6,M,46.2,M,,*70
$GNRMC,175410.60,A,4856.79986,N,00229.87290,E,0.137,,060721,,,A*62
$GNGGA,175410.60,4856.79986,N,00229.87290,E,1,12,0.87,32.6,M,46.2,M,,*72
$GNRMC,175410.80,A,4856.79986,N,00229.87293,E,0.046,,060721,,,A*68
$GNGGA,175410.80,4856.79986,N,00229.87293,E,1,12,0.87,32.6,M,46.2,M,,*7F
$GNRMC,175411.00,A,4856.79987,N,00229.87298,E,0.063,,060721,,,A*6C
$GNGGA,175411.00,4856.79987,N,00229.87298,E,1,12,0.87,32.7,M,46.2,M,,*7D
$GNRMC,175411.20,A,4856.79987,N,00229.87300,E,0.084,,060721,,,A*67
$GNGGA,175411.20,4856.79987,N,00229.87300,E,1,12,0.87,32.7,M,46.2,M,,*7F
$GNRMC,175411.40,A,4856.79987,N,00229.87301,E,0.096,,060721,,,A*63
$GNGGA,175411.40,4856.79987,N,00229.87301,E,1,12,0.87,32.7,M,46.2,M,,*78
$GNRMC,175411.60,A,4856.79987,N,00229.87304,E,0.260,,060721,,,A*6F
$GNGGA,175411.60,4856.79987,N,00229.87304,E,1,12,0.98,32.7,M,46.2,M,,*71
$GNRMC,175411.80,A,4856.79986,N,00229.87300,E,0.094,,060721,,,A*6D
$GNGGA,175411.80,4856.79986,N,00229.87300,E,1,12,0.98,32.7,M,46.2,M,,*7A
$GNRMC,175412.00,A,4856.79985,N,00229.87298,E,0.132,,060721,,,A*68
$GNGGA,175412.00,4856.79985,N,00229.87298,E,1,12,0.98,32.7,M,46.2,M,,*72
$GNRMC,175412.20,A,4856.79984,N,00229.87293,E,0.158,,060721,,,A*6C
$GNGGA,175412.20,4856.79984,N,00229.87293,E,1,12,0.98,32.6,M,46.2,M,,*7B
$GNRMC,175412.40,A,4856.79984,N,00229.87291,E,0.178,,060721,,,A*6A
$GNGGA,175412.40,4856.79984,N,00229.87291,E,1,12,0.98,32.6,M,46.2,M,,*7F
$GNRMC,175412.60,A,4856.79982,N,00229.87290,E,0.175,,060721,,,A*62
$GNGGA,175412.60,4856.79982,N,00229.87290,E,1,12,0.98,32.6,M,46.2,M,,*7A
$GNRMC,175412.80,A,4856.79981,N,00229.87287,E,0.236,,060721,,,A*6D
$GNGGA,175412.80,4856.79981,N,00229.87287,E,1,12,0.98,32.5,M,46.2,M,,*72
$GNRMC,175413.00,A,4856.79980,N,00229.87285,E,0.243,,060721,,,A*65
$GNGGA,175413.00,4856.79980,N,00229.87285,E,1,12,0.98,32.5,M,46.2,M,,*78
$GNRMC,175413.20,A,4856.79979,N,00229.87286,E,0.182,,060721,,,A*6C
$GNGGA,175413.20,4856.79979,N,00229.87286,E,1,12,0.98,32.5,M,46.2,M,,*7F
$GNRMC,175413.40,A,4856.79977,N,00229.87283,E,0.250,,060721,,,A*6D
$GNGGA,175413.40,4856.79977,N,00229.87283,E,1,12,0.98,32.5,M,46.2,M,,*72
$GNRMC,175413.60,A,4856.79974,N,00229.87280,E,0.229,,060721,,,A*61
$GNGGA,175413.60,4856.79974,N,00229.87280,E,1,12,0.98,32.4,M,46.2,M,,*71
$GNRMC,175413.80,A,4856.79974,N,00229.87283,E,0.120,,060721,,,A*66
$GNGGA,175413.80,4856.79974,N,00229.87283,E,1,12,0.98,32.5,M,46.2,M,,*7D
$GNRMC,175414.00,A,4856.79973,N,00229.87285,E,0.069,,060721,,,A*64
$GNGGA,175414.00,4856.79973,N,00229.87285,E,1,12,0.98,32.4,M,46.2,M,,*72
$GNRMC,175414.20,A,4856.79972,N,00229.87283,E,0.145,,060721,,,A*6E
$GNGGA,175414.20,4856.79972,N,00229.87283,E,1,12,0.98,32.4,M,46.2,M,,*77
$GNRMC,175414.40,A,4856.79970,N,00229.87278,E,0.205,,060721,,,A*69
$GNGGA,175414.40,4856.79970,N,00229.87278,E,1,12,0.98,32.4,M,46.2,M,,*77
$GNRMC,175414.60,A,4856.79970,N,00229.87279,E,0.163,,060721,,,A*69
$GNGGA,175414.60,4856.79970,N,00229.87279,E,1,12,0.98,32.4,M,46.2,M,,*74
$GNRMC,175414.80,A,4856.79970,N,00229.87280,E,0.139,,060721,,,A*6E
$GNGGA,175414.80,4856.79970,N,00229.87280,E,1,12,0.98,32.4,M,46.2,M,,*7C
$GNRMC,175415.00,A,4856.79970,N,00229.87281,E,0.190,,060721,,,A*65
$GNGGA,175415.00,4856.79970,N,00229.87281,E,1,12,0.98,32.4,M,46.2,M,,*74
$GNRMC,175415.20,A,4856.79968,N,00229.87282,E,0.114,,060721,,,A*61
$GNGGA,175415.20,4856.79968,N,00229.87282,E,1,12,0.98,32.4,M,46.2,M,,*7C
$GNRMC,175415.40,A,4856.79968,N,00229.87283,E,0.058,,060721,,,A*6F
$GNGGA,175415.40,4856.79968,N,00229.87283,E,1,12,0.98,32.4,M,46.2,M,,*7B
$GNRMC,175415.60,A,4856.79967,N,00229.87283,E,0.068,,060721,,,A*61
$GNGGA,175415.60,4856.79967,N,00229.87283,E,1,12,0.98,32.4,M,46.2,M,,*76
$GNRMC,175415.80,A,4856.79966,N,00229.87281,E,0.078,,060721,,,A*6D
$GNGGA,175415.80,4856.79966,N,00229.87281,E,1,12,0.98,32.4,M,46.2,M,,*7B
$GNRMC,175416.00,A,4856.79964,N,00229.87277,E,0.104,,060721,,,A*67
$GNGGA,175416.00,4856.79964,N,00229.87277,E,1,12,0.98,32.3,M,46.2,M,,*7C
$GNRMC,175416.20,A,4856.79961,N,00229.87275,E,0.165,,060721,,,A*65
$GNGGA,175416.20,4856.79961,N,00229.87275,E,1,12,0.98,32.3,M,46.2,M,,*79
$GNRMC,175416.40,A,4856.79962,N,00229.87279,E,0.049,,060721,,,A*63
$GNGGA,175416.40,4856.79962,N,00229.87279,E,1,12,0.98,32.3,M,46.2,M,,*70
$GNRMC,175416.60,A,4856.79961,N,00229.87281,E,0.099,,060721,,,A*68
$GNGGA,175416.60,4856.79961,N,00229.87281,E,1,12,0.98,32.3,M,46.2,M,,*76
$GNRMC,175416.80,A,4856.79961,N,00229.87284,E,0.065,,060721,,,A*60
$GNGGA,175416.80,4856.79961,N,00229.87284,E,1,12,0.98,32.4,M,46.2,M,,*7A
$GNRMC,175417.00,A,4856.79959,N,00229.87283,E,0.031,,060721,,,A*64
$GNGGA,175417.00,4856.79959,N,00229.87283,E,1,12,0.98,32.3,M,46.2,M,,*78
$GNRMC,175417.20,A,4856.79958,N,00229.87284,E,0.129,,060721,,,A*68
$GNGGA,175417.20,4856.79958,N,00229.87284,E,1,12,0.98,32.3,M,46.2,M,,*7C
$GNRMC,175417.40,A,4856.79959,N,00229.87287,E,0.021,,060721,,,A*65
$GNGGA,175417.40,4856.79959,N,00229.87287,E,1,12,0.85,32.4,M,46.2,M,,*73
$GNRMC,175417.60,A,4856.79959,N,00229.87288,E,0.075,,060721,,,A*69
$GNGGA,175417.60,4856.79959,N,00229.87288,E,1,12,0.98,32.3,M,46.2,M,,*75
$GNRMC,175417.80,A,4856.79957,N,00229.87284,E,0.131,,060721,,,A*64
$GNGGA,175417.80,4856.79957,N,00229.87284,E,1,12,0.98,32.3,M,46.2,M,,*79
$GNRMC,175418.00,A,4856.79955,N,00229.87284,E,0.011,,060721,,,A*62
$GNGGA,175418.00,4856.79955,N,00229.87284,E,1,12,0.98,32.3,M,46.2,M,,*7C
$GNRMC,175418.20,A,4856.79955,N,00229.87283,E,0.053,,060721,,,A*61
$GNGGA,175418.20,4856.79955,N,00229.87283,E,1,12,0.98,32.3,M,46.2,M,,*79
$GNRMC,175418.40,A,4856.79954,N,00229.87283,E,0.031,,060721,,,A*62
$GNGGA,175418.40,4856.79954,N,00229.87283,E,1,12,0.98,32.3,M,46.2,M,,*7E
$GNRMC,175418.60,A,4856.79954,N,00229.87285,E,0.088,,060721,,,A*64
$GNGGA,175418.60,4856.79954,N,00229.87285,E,1,12,0.98,32.3,M,46.2,M,,*7A
$GNRMC,175418.80,A,4856.79951,N,00229.87283,E,0.146,,060721,,,A*6A
$GNGGA,175418.80,4856.79951,N,00229.87283,E,1,12,0.98,32.2,M,46.2,M,,*76
$GNRMC,175419.00,A,4856.79952,N,00229.87289,E,0.109,,060721,,,A*61
$GNGGA,175419.00,4856.79952,N,00229.87289,E,1,12,0.98,32.3,M,46.2,M,,*77
$GNRMC,175419.20,A,4856.79951,N,00229.87293,E,0.200,,060721,,,A*61
$GNGGA,175419.20,4856.79951,N,00229.87293,E,1,12,0.98,32.3,M,46.2,M,,*7D
$GNRMC,175419.40,A,4856.79948,N,00229.87291,E,0.070,,060721,,,A*68
$GNGGA,175419.40,4856.79948,N,00229.87291,E,1,12,0.98,32.2,M,46.2,M,,*70
$GNRMC,175419.60,A,4856.79947,N,00229.87291,E,0.048,,060721,,,A*6E
$GNGGA,175419.60,4856.79947,N,00229.87291,E,1,12,0.98,32.2,M,46.2,M,,*7D
$GNRMC,175419.80,A,4856.79946,N,00229.87291,E,0.065,,060721,,,A*6E
$GNGGA,175419.80,4856.79946,N,00229.87291,E,1,12,0.98,32.2,M,46.2,M,,*72
$GNRMC,175420.00,A,4856.79945,N,00229.87294,E,0.072,,060721,,,A*6C
$GNGGA,175420.00,4856.79945,N,00229.87294,E,1,12,0.98,32.2,M,46.2,M,,*76
$GNRMC,175420.20,A,4856.79943,N,00229.87293,E,0.100,,060721,,,A*6B
$GNGGA,175420.20,4856.79943,N,00229.87293,E,1,12,0.98,32.2,M,46.2,M,,*75
$GNRMC,175420.40,A,4856.79942,N,00229.87291,E,0.109,,060721,,,A*67
$GNGGA,175420.40,4856.79942,N,00229.87291,E,1,12,0.98,32.2,M,46.2,M,,*70
$GNRMC,175420.60,A,4856.79940,N,00229.87291,E,0.143,,060721,,,A*69
$GNGGA,175420.60,4856.79940,N,00229.87291,E,1,12,0.98,32.2,M,46.2,M,,*70
$GNRMC,175420.80,A,4856.79938,N,00229.87285,E,0.207,,060721,,,A*6E
$GNGGA,175420.80,4856.79938,N,00229.87285,E,1,12,0.98,32.1,M,46.2,M,,*77
$GNRMC,175421.00,A,4856.79936,N,00229.87284,E,0.100,,060721,,,A*6C
$GNGGA,175421.00,4856.79936,N,00229.87284,E,1,12,0.98,32.1,M,46.2,M,,*71
$GNRMC,175421.20,A,4856.79935,N,00229.87284,E,0.176,,060721,,,A*6C
$GNGGA,175421.20,4856.79935,N,00229.87284,E,1,12,0.98,32.1,M,46.2,M,,*70
$GNRMC,175421.40,A,4856.79934,N,00229.87282,E,0.086,,060721,,,A*63
$GNGGA,175421.40,4856.79934,N,00229.87282,E,1,12,0.98,32.1,M,46.2,M,,*71
$GNRMC,175421.60,A,4856.79933,N,00229.87282,E,0.036,,060721,,,A*6D
$GNGGA,175421.60,4856.79933,N,00229.87282,E,1,12,0.98,32.1,M,46.2,M,,*74
$GNRMC,175421.80,A,4856.79932,N,00229.87282,E,0.043,,060721,,,A*60
$GNGGA,175421.80,4856.79932,N,00229.87282,E,1,12,0.98,32.1,M,46.2,M,,*7B
$GNRMC,175422.00,A,4856.79930,N,00229.87284,E,0.141,,060721,,,A*6C
$GNGGA,175422.00,4856.79930,N,00229.87284,E,1,12,0.98,32.0,M,46.2,M,,*75
$GNRMC,175422.20,A,4856.79930,N,00229.87283,E,0.061,,060721,,,A*6A
$GNGGA,175422.20,4856.79930,N,00229.87283,E,1,12,0.98,32.0,M,46.2,M,,*70
$GNRMC,175422.40,A,4856.79930,N,00229.87285,E,0.018,,060721,,,A*64
$GNGGA,175422.40,4856.79930,N,00229.87285,E,1,12,0.98,32.1,M,46.2,M,,*71
$GNRMC,175422.60,A,4856.79931,N,00229.87289,E,0.067,,060721,,,A*63
$GNGGA,175422.60,4856.79931,N,00229.87289,E,1,12,0.98,32.1,M,46.2,M,,*7E
$GNRMC,175422.80,A,4856.79931,N,00229.87291,E,0.052,,060721,,,A*62
$GNGGA,175422.80,4856.79931,N,00229.87291,E,1,12,0.98,32.1,M,46.2,M,,*79
$GNRMC,175423.00,A,4856.79929,N,00229.87293,E,0.088,,060721,,,A*67
$GNGGA,175423.00,4856.79929,N,00229.87293,E,1,12,0.98,32.1,M,46.2,M,,*7B
$GNRMC,175423.20,A,4856.79929,N,00229.87292,E,0.129,,060721,,,A*6E
$GNGGA,175423.20,4856.79929,N,00229.87292,E,1,12,0.98,32.1,M,46.2,M,,*78
$GNRMC,175423.40,A,4856.79929,N,00229.87296,E,0.055,,060721,,,A*66
$GNGGA,175423.40,4856.79929,N,00229.87296,E,1,12,0.98,32.1,M,46.2,M,,*7A
$GNRMC,175423.60,A,4856.79928,N,00229.87296,E,0.066,,060721,,,A*65
$GNGGA,175423.60,4856.79928,N,00229.87296,E,1,12,0.98,32.1,M,46.2,M,,*79
$GNRMC,175423.80,A,4856.79928,N,00229.87298,E,0.099,,060721,,,A*65
$GNGGA,175423.80,4856.79928,N,00229.87298,E,1,12,0.98,32.1,M,46.2,M,,*79
$GNRMC,175424.00,A,4856.79930,N,00229.87301,E,0.062,,060721,,,A*66
$GNGGA,175424.00,4856.79930,N,00229.87301,E,1,12,0.85,32.2,M,46.2,M,,*71
$GNRMC,175424.20,A,4856.79929,N,00229.87302,E,0.069,,060721,,,A*64
$GNGGA,175424.20,4856.79929,N,00229.87302,E,1,12,0.85,32.2,M,46.2,M,,*78
$GNRMC,175424.40,A,4856.79931,N,00229.87304,E,0.178,,060721,,,A*6C
$GNGGA,175424.40,4856.79931,N,00229.87304,E,1,12,0.86,32.3,M,46.2,M,,*73
$GNRMC,175424.60,A,4856.79932,N,00229.87309,E,0.047,,060721,,,A*6D
