$GNGSA,A,3,07,30,05,09,13,14,18,,,,,,1.61,1.09,1.19*1D
$GNGSA,A,3,76,67,66,,,,,,,,,,1.61,1.09,1.19*1B
$GPGSV,4,1,13,02,09,217,,05,59,286,20,07,40,057,42,08,00,057,*7B
$GPGSV,4,2,13,09,09,096,08,11,11,209,17,13,46,281,29,14,26,146,18*7C
$GPGSV,4,3,13,15,15,284,21,18,10,330,21,20,65,231,,27,02,028,*76
$GPGSV,4,4,13,30,77,096,32*46
$GLGSV,3,1,10,66,44,109,31,67,72,343,22,68,22,309,,75,03,027,*6C
$GLGSV,3,2,10,76,51,049,22,77,60,163,,78,11,195,20,82,00,249,*6A
$GLGSV,3,3,10,83,16,289,,84,13,347,*65
$GNGLL,4856.80310,N,00229.88010,E,221029.00,A,A*70
$GNRMC,221029.20,A,4856.80306,N,00229.88017,E,0.034,,060721,,,A*6E
$GNVTG,,T,,M,0.034,N,0.062,K,A*3E
$GNGGA,221029.20,4856.80306,N,00229.88017,E,1,10,1.09,47.7,M,46.2,M,,*7A
$GNGSA,A,3,07,30,05,09,13,14,18,,,,,,1.61,1.09,1.19*1D
$GNGSA,A,3,76,67,66,,,,,,,,,,1.61,1.09,1.19*1B
$GPGSV,4,1,13,02,09,217,,05,59,286,20,07,40,057,42,08,00,057,*7B
$GPGSV,4,2,13,09,09,096,10,11,11,209,18,13,46,281,29,14,27,146,18*7B
$GPGSV,4,3,13,15,15,284,21,18,10,330,21,20,65,231,,27,02,028,*76
$GPGSV,4,4,13,30,77,096,32*46
$GLGSV,3,1,10,66,44,109,31,67,72,343,22,68,22,309,,75,03,027,*6C
$GLGSV,3,2,10,76,51,049,22,77,60,163,,78,11,195,20,82,00,249,*6A
$GLGSV,3,3,10,83,16,289,,84,13,347,*65
$GNGLL,4856.80306,N,00229.88017,E,221029.20,A,A*72
$GNRMC,221029.40,A,4856.80302,N,00229.88022,E,0.091,,060721,,,A*65
$GNVTG,,T,,M,0.091,N,0.168,K,A*3A
$GNGGA,221029.40,4856.80302,N,00229.88022,E,1,10,1.09,47.6,M,46.2,M,,*7F
$GNGSA,A,3,07,30,05,09,13,14,18,,,,,,1.61,1.09,1.19*1D
$GNGSA,A,3,76,67,66,,,,,,,,,,1.61,1.09,1.19*1B
$GPGSV,4,1,13,02,09,217,,05,59,286,20,07,40,057,42,08,00,057,*7B
$GPGSV,4,2,13,09,09,096,10,11,11,209,18,13,46,281,29,14,27,146,18*7B
$GPGSV,4,3,13,15,15,284,21,18,10,330,21,20,65,231,,27,02,028,*76
$GPGSV,4,4,13,30,77,096,32*46
$GLGSV,3,1,10,66,44,109,31,67,72,343,22,68,22,309,,75,03,027,*6C
$GLGSV,3,2,10,76,51,049,22,77,60,163,,78,11,195,20,82,00,249,*6A
$GLGSV,3,3,10,83,16,289,,84,13,347,*65
$GNGLL,4856.80302,N,00229.88022,E,221029.40,A,A*76
$GNRMC,221029.60,A,4856.80296,N,00229.88026,E,0.053,,060721,,,A*61
$GNVTG,,T,,M,0.053,N,0.099,K,A*3B
$GNGGA,221029.60,4856.80296,N,00229.88026,E,1,10,1.09,47.5,M,46.2,M,,*76
$GNGSA,A,3,07,30,05,09,13,14,18,,,,,,1.61,1.09,1.19*1D
$GNGSA,A,3,76,67,66,,,,,,,,,,1.61,1.09,1.19*1B
$GPGSV,4,1,13,02,09,217,,05,59,286,20,07,40,057,42,08,00,057,*7B
$GPGSV,4,2,13,09,09,096,13,11,11,209,18,13,46,281,29,14,27,146,18*78
$GPGSV,4,3,13,15,15,284,21,18,10,330,21,20,65,231,,27,02,028,*76
$GPGSV,4,4,13,30,77,096,32*46
$GLGSV,3,1,10,66,44,109,31,67,72,343,22,68,22,309,,75,03,027,*6C
$GLGSV,3,2,10,76,51,049,22,77,60,163,,78,11,195,20,82,00,249,*6A
$GLGSV,3,3,10,83,16,289,,84,13,347,*65
$GNGLL,4856.80296,N,00229.88026,E,221029.60,A,A*7C
$GNRMC,221029.80,A,4856.80286,N,00229.88027,E,0.067,,060721,,,A*68
$GNVTG,,T,,M,0.067,N,0.124,K,A*3B
$GNGGA,221029.80,4856.80286,N,00229.88027,E,1,10,1.09,47.3,M,46.2,M,,*7E
$GNGSA,A,3,07,30,05,09,13,14,18,,,,,,1.61,1.09,1.19*1D
$GNGSA,A,3,76,67,66,,,,,,,,,,1.61,1.09,1.19*1B
$GPGSV,4,1,13,02,09,217,,05,59,286,20,07,40,057,42,08,00,057,*7B
$GPGSV,4,2,13,09,09,096,13,11,11,209,18,13,46,281,29,14,27,146,19*79
$GPGSV,4,3,13,15,15,284,21,18,10,330,22,20,65,231,,27,02,028,*75
$GPGSV,4,4,13,30,77,096,32*46
$GLGSV,3,1,10,66,44,109,31,67,72,343,22,68,22,309,,75,03,027,*6C
$GLGSV,3,2,10,76,51,049,21,77,60,163,,78,11,195,20,82,00,249,*69
$GLGSV,3,3,10,83,16,289,,84,13,347,*65
$GNGLL,4856.80286,N,00229.88027,E,221029.80,A,A*72
$GNRMC,221030.00,A,4856.80278,N,00229.88029,E,0.026,,060721,,,A*62
$GNVTG,,T,,M,0.026,N,0.049,K,A*34
$GNGGA,221030.00,4856.80278,N,00229.88029,E,1,10,1.09,47.1,M,46.2,M,,*73
$GNGSA,A,3,07,30,05,09,13,14,18,,,,,,1.61,1.09,1.19*1D
$GNGSA,A,3,76,67,66,,,,,,,,,,1.61,1.09,1.19*1B
$GPGSV,4,1,13,02,09,217,,05,59,286,20,07,40,057,42,08,00,057,*7B
$GPGSV,4,2,13,09,09,096,08,11,11,209,18,13,46,281,29,14,27,146,19*73
$GPGSV,4,3,13,15,15,284,20,18,10,330,22,20,65,231,,27,02,028,*74
$GPGSV,4,4,13,30,77,096,32*46
$GLGSV,3,1,10,66,44,109,31,67,72,343,23,68,22,309,,75,03,027,*6D
$GLGSV,3,2,10,76,51,049,21,77,60,163,,78,11,195,20,82,00,249,*69
$GLGSV,3,3,10,83,16,289,,84,13,347,*65
$GNGLL,4856.80278,N,00229.88029,E,221030.00,A,A*7D
$GNRMC,221030.20,A,4856.80271,N,00229.88028,E,0.105,,060721,,,A*68
$GNVTG,,T,,M,0.105,N,0.194,K,A*35
$GNGGA,221030.20,4856.80271,N,00229.88028,E,1,10,1.09,46.9,M,46.2,M,,*70
$GNGSA,A,3,07,30,05,09,13,14,18,,,,,,1.61,1.09,1.19*1D
$GNGSA,A,3,76,67,66,,,,,,,,,,1.61,1.09,1.19*1B
$GPGSV,4,1,13,02,09,217,,05,59,286,20,07,40,057,42,08,00,057,*7B
$GPGSV,4,2,13,09,09,096,08,11,11,209,18,13,46,281,29,14,27,146,19*73
$GPGSV,4,3,13,15,15,284,20,18,10,330,22,20,65,231,,27,02,028,*74
$GPGSV,4,4,13,30,77,096,32*46
$GLGSV,3,1,10,66,44,109,31,67,72,343,22,68,22,309,,75,03,027,*6C
$GLGSV,3,2,10,76,51,049,21,77,60,163,,78,11,195,20,82,00,249,*69
$GLGSV,3,3,10,83,16,289,,84,13,347,*65
$GNGLL,4856.80271,N,00229.88028,E,221030.20,A,A*77
$GNRMC,221030.40,A,4856.80265,N,00229.88028,E,0.089,,060721,,,A*6E
$GNVTG,,T,,M,0.089,N,0.165,K,A*3E
$GNGGA,221030.40,4856.80265,N,00229.88028,E,1,10,1.09,46.7,M,46.2,M,,*7D
$GNGSA,A,3,07,30,05,09,13,14,18,,,,,,1.61,1.09,1.19*1D
$GNGSA,A,3,76,67,66,,,,,,,,,,1.61,1.09,1.19*1B
$GPGSV,4,1,13,02,09,217,,05,59,286,19,07,40,057,42,08,00,057,*71
$GPGSV,4,2,13,09,09,096,08,11,11,209,18,13,46,281,28,14,27,146,19*72
$GPGSV,4,3,13,15,15,284,20,18,10,330,22,20,65,230,,27,02,028,*75
$GPGSV,4,4,13,30,77,096,32*46
$GLGSV,3,1,10,66,44,109,31,67,72,343,23,68,22,309,,75,03,027,*6D
$GLGSV,3,2,10,76,51,049,21,77,60,163,,78,11,195,19,82,00,249,*63
$GLGSV,3,3,10,83,16,289,,84,13,347,*65
$GNGLL,4856.80265,N,00229.88028,E,221030.40,A,A*74
$GNRMC,221030.60,A,4856.80262,N,00229.88030,E,0.062,,060721,,,A*67
$GNVTG,,T,,M,0.062,N,0.115,K,A*3C
$GNGGA,221030.60,4856.80262,N,00229.88030,E,1,10,1.09,46.7,M,46.2,M,,*71
$GPGSV,4,1,13,02,09,217,,05,59,286,19,07,40,057,42,08,00,057,*71
$GPGSV,4,2,13,09,09,096,08,11,11,209,18,13,46,281,28,14,27,146,19*72
$GPGSV,4,3,13,15,15,284,20,18,10,330,22,20,65,230,,27,02,028,*75
$GPGSV,4,4,13,30,77,096,32*46
$GLGSV,3,1,10,66,44,109,31,67,72,343,23,68,22,309,,75,03,027,*6D
$GLGSV,3,2,10,76,51,049,21,77,60,163,,78,11,195,19,82,00,249,*63
$GLGSV,3,3,10,83,16,289,,84,13,347,*65
$GNGLL,4856.80262,N,00229.88030,E,221030.60,A,A*78
$GNRMC,221030.80,A,4856.80255,N,00229.88028,E,0.146,,060721,,,A*63
$GNVTG,,T,,M,0.146,N,0.270,K,A*3B
$GNGGA,221030.80,4856.80255,N,00229.88028,E,1,10,1.09,46.4,M,46.2,M,,*71
$GPGSV,4,1,13,02,09,217,,05,59,286,19,07,40,057,42,08,00,057,*71
$GPGSV,4,2,13,09,09,096,08,11,11,209,19,13,46,281,28,14,27,146,19*73
$GPGSV,4,3,13,15,15,284,20,18,10,330,22,20,65,230,,27,02,028,*75
$GPGSV,4,4,13,30,77,096,32*46
$GLGSV,3,1,10,66,44,109,31,67,72,343,23,68,22,309,,75,03,027,*6D
$GLGSV,3,2,10,76,51,049,21,77,60,163,,78,11,195,19,82,00,249,*63
$GLGSV,3,3,10,83,16,289,,84,13,347,*65
$GNRMC,221031.00,A,4856.80253,N,00229.88027,E,0.206,,060721,,,A*64
$GNTXT,01,01,00,txbuf alloc*61
$GNRMC,221031.20,A,4856.80251,N,00229.88025,E,0.135,,060721,,,A*65
$GNVTG,,T,,M,0.135,N,0.250,K,A*3D
$GNGGA,221031.20,4856.80251,N,00229.88025,E,1,10,1.09,46.5,M,46.2,M,,*72
$GNRMC,221031.40,A,4856.80246,N,00229.88023,E,0.192,,060721,,,A*6E
$GNVTG,,T,,M,0.192,N,0.356,K,A*37
$GNGGA,221031.40,4856.80246,N,00229.88023,E,1,10,1.09,46.4,M,46.2,M,,*75
$GNGLL,4856.80246,N,00229.88023,E,221031.40,A,A*7F
$GNRMC,221031.60,A,4856.80241,N,00229.88019,E,0.068,,060721,,,A*66
$GNVTG,,T,,M,0.068,N,0.127,K,A*37
$GNGGA,221031.60,4856.80241,N,00229.88019,E,1,10,1.09,46.3,M,46.2,M,,*7E
$GNRMC,221031.80,A,4856.80238,N,00229.88016,E,0.091,,060721,,,A*6F
$GNVTG,,T,,M,0.091,N,0.169,K,A*3B
$GNGGA,221031.80,4856.80238,N,00229.88016,E,1,10,1.09,46.2,M,46.2,M,,*70
$GNRMC,221032.00,A,4856.80236,N,00229.88017,E,0.067,,060721,,,A*62
$GNGGA,221032.00,4856.80236,N,00229.88017,E,1,10,1.09,46.3,M,46.2,M,,*75
$GNRMC,221032.20,A,4856.80235,N,00229.88019,E,0.067,,060721,,,A*6D
$GNGGA,221032.20,4856.80235,N,00229.88019,E,1,10,1.09,46.3,M,46.2,M,,*7A
$GNRMC,221032.40,A,4856.80234,N,00229.88022,E,0.069,,060721,,,A*6C
$GNGGA,221032.40,4856.80234,N,00229.88022,E,1,10,1.09,46.4,M,46.2,M,,*72
$GNTXT,01,01,01,PUBX 40 unknown msg*7A
$GNRMC,221032.60,A,4856.80232,N,00229.88022,E,0.132,,060721,,,A*67
$GNGGA,221032.60,4856.80232,N,00229.88022,E,1,10,1.09,46.4,M,46.2,M,,*76
$GNRMC,221032.80,A,4856.80234,N,00229.88022,E,0.081,,060721,,,A*66
$GNGGA,221032.80,4856.80234,N,00229.88022,E,1,10,1.09,46.5,M,46.2,M,,*7F
$GNRMC,221033.00,A,4856.80238,N,00229.88022,E,0.035,,060721,,,A*6C
$GNGGA,221033.00,4856.80238,N,00229.88022,E,1,09,1.13,46.6,M,46.2,M,,*7A
$GNRMC,221033.20,A,4856.80240,N,00229.88020,E,0.154,,060721,,,A*65
$GNGGA,221033.20,4856.80240,N,00229.88020,E,1,09,1.13,46.7,M,46.2,M,,*74
$GNRMC,221033.40,A,4856.80246,N,00229.88020,E,0.184,,060721,,,A*68
$GNGGA,221033.40,4856.80246,N,00229.88020,E,1,09,1.13,46.8,M,46.2,M,,*7B
$GNRMC,221033.60,A,4856.80249,N,00229.88020,E,0.253,,060721,,,A*6C
$GNGGA,221033.60,4856.80249,N,00229.88020,E,1,09,1.13,46.9,M,46.2,M,,*77
$GNRMC,221033.80,A,4856.80250,N,00229.88022,E,0.125,,060721,,,A*6A
$GNGGA,221033.80,4856.80250,N,00229.88022,E,1,09,1.13,47.0,M,46.2,M,,*7B
$GNRMC,221034.00,A,4856.80251,N,00229.88023,E,0.155,,060721,,,A*62
$GNGGA,221034.00,4856.80251,N,00229.88023,E,1,09,1.13,47.0,M,46.2,M,,*74
$GNRMC,221034.20,A,4856.80252,N,00229.88026,E,0.088,,060721,,,A*67
$GNGGA,221034.20,4856.80252,N,00229.88026,E,1,09,1.13,47.1,M,46.2,M,,*71
$GNRMC,221034.40,A,4856.80251,N,00229.88027,E,0.059,,060721,,,A*6F
$GNGGA,221034.40,4856.80251,N,00229.88027,E,1,09,1.13,47.2,M,46.2,M,,*76
$GNRMC,221034.60,A,4856.80246,N,00229.88027,E,0.102,,060721,,,A*64
$GNGGA,221034.60,4856.80246,N,00229.88027,E,1,09,1.13,47.2,M,46.2,M,,*72
$GNRMC,221034.80,A,4856.80242,N,00229.88028,E,0.103,,060721,,,A*60
$GNGGA,221034.80,4856.80242,N,00229.88028,E,1,09,1.13,47.2,M,46.2,M,,*77
$GNRMC,221035.00,A,4856.80239,N,00229.88030,E,0.033,,060721,,,A*6E
$GNGGA,221035.00,4856.80239,N,00229.88030,E,1,09,1.13,47.3,M,46.2,M,,*7A
$GNRMC,221035.20,A,4856.80235,N,00229.88030,E,0.089,,060721,,,A*61
$GNGGA,221035.20,4856.80235,N,00229.88030,E,1,09,1.13,47.3,M,46.2,M,,*74
$GNRMC,221035.40,A,4856.80234,N,00229.88031,E,0.061,,060721,,,A*61
$GNGGA,221035.40,4856.80234,N,00229.88031,E,1,09,1.13,47.3,M,46.2,M,,*72
$GNRMC,221035.60,A,4856.80237,N,00229.88029,E,0.173,,060721,,,A*6B
$GNGGA,221035.60,4856.80237,N,00229.88029,E,1,09,1.13,47.5,M,46.2,M,,*7C
$GNRMC,221035.80,A,4856.80237,N,00229.88031,E,0.046,,060721,,,A*6B
$GNGGA,221035.80,4856.80237,N,00229.88031,E,1,09,1.13,47.6,M,46.2,M,,*78
$GNRMC,221036.00,A,4856.80237,N,00229.88030,E,0.108,,060721,,,A*6A
$GNGGA,221036.00,4856.80237,N,00229.88030,E,1,09,1.13,47.6,M,46.2,M,,*72
$GNRMC,221036.20,A,4856.80237,N,00229.88031,E,0.100,,060721,,,A*61
$GNGGA,221036.20,4856.80237,N,00229.88031,E,1,09,1.13,47.6,M,46.2,M,,*71
$GNRMC,221036.40,A,4856.80240,N,00229.88034,E,0.055,,060721,,,A*63
$GNGGA,221036.40,4856.80240,N,00229.88034,E,1,09,1.13,47.8,M,46.2,M,,*7C
$GNRMC,221036.60,A,4856.80239,N,00229.88036,E,0.091,,060721,,,A*65
$GNGGA,221036.60,4856.80239,N,00229.88036,E,1,09,1.13,48.0,M,46.2,M,,*75
$GNRMC,221036.80,A,4856.80237,N,00229.88036,E,0.080,,060721,,,A*65
$GNGGA,221036.80,4856.80237,N,00229.88036,E,1,09,1.13,47.9,M,46.2,M,,*73
$GNRMC,221037.00,A,4856.80237,N,00229.88037,E,0.016,,060721,,,A*62
$GNGGA,221037.00,4856.80237,N,00229.88037,E,1,09,1.13,47.9,M,46.2,M,,*7B
$GNTXT,01,01,00,txbuf alloc*61
$GNRMC,221037.20,A,4856.80237,N,00229.88037,E,0.083,,060721,,,A*6C
$GNGGA,221037.20,4856.80237,N,00229.88037,E,1,09,1.13,47.9,M,46.2,M,,*79
$GNRMC,221037.40,A,4856.80236,N,00229.88038,E,0.022,,060721,,,A*6F
$GNGGA,221037.40,4856.80236,N,00229.88038,E,1,09,1.13,47.9,M,46.2,M,,*71
$GNRMC,221037.60,A,4856.80238,N,00229.88038,E,0.076,,060721,,,A*62
$GNGGA,221037.60,4856.80238,N,00229.88038,E,1,09,1.13,48.0,M,46.2,M,,*7B
$GNRMC,221037.80,A,4856.80239,N,00229.88037,E,0.181,,060721,,,A*6B
$GNGGA,221037.80,4856.80239,N,00229.88037,E,1,09,1.13,48.1,M,46.2,M,,*7A
$GNRMC,221038.00,A,4856.80240,N,00229.88037,E,0.139,,060721,,,A*61
$GNGGA,221038.00,4856.80240,N,00229.88037,E,1,09,1.13,48.2,M,46.2,M,,*70
$GNRMC,221038.20,A,4856.80240,N,00229.88037,E,0.042,,060721,,,A*6E
$GNGGA,221038.20,4856.80240,N,00229.88037,E,1,09,1.13,48.2,M,46.2,M,,*72
$GNRMC,221038.40,A,4856.80239,N,00229.88037,E,0.078,,060721,,,A*6F
$GNGGA,221038.40,4856.80239,N,00229.88037,E,1,09,1.13,48.3,M,46.2,M,,*7B
$GNRMC,221038.60,A,4856.80242,N,00229.88038,E,0.162,,060721,,,A*64
$GNGGA,221038.60,4856.80242,N,00229.88038,E,1,09,1.13,48.4,M,46.2,M,,*7D
$GNRMC,221038.80,A,4856.80243,N,00229.88038,E,0.105,,060721,,,A*6A
$GNGGA,221038.80,4856.80243,N,00229.88038,E,1,09,1.13,48.5,M,46.2,M,,*73
$GNRMC,221039.00,A,4856.80242,N,00229.88039,E,0.079,,060721,,,A*69
$GNGGA,221039.00,4856.80242,N,00229.88039,E,1,09,1.13,48.5,M,46.2,M,,*7A
$GNRMC,221039.20,A,4856.80239,N,00229.88038,E,0.137,,060721,,,A*6D
$GNGGA,221039.20,4856.80239,N,00229.88038,E,1,09,1.13,48.5,M,46.2,M,,*75
$GNRMC,221039.40,A,4856.80239,N,00229.88037,E,0.090,,060721,,,A*68
$GNGGA,221039.40,4856.80239,N,00229.88037,E,1,09,1.13,48.6,M,46.2,M,,*7F
$GNRMC,221039.60,A,4856.80241,N,00229.88035,E,0.242,,060721,,,A*6A
$GNGGA,221039.60,4856.80241,N,00229.88035,E,1,09,1.13,48.6,M,46.2,M,,*70
$GNRMC,221039.80,A,4856.80241,N,00229.88034,E,0.154,,060721,,,A*61
$GNGGA,221039.80,4856.80241,N,00229.88034,E,1,09,1.13,48.6,M,46.2,M,,*7F
$GNRMC,221040.00,A,4856.80242,N,00229.88033,E,0.100,,060721,,,A*62
$GNGGA,221040.00,4856.80242,N,00229.88033,E,1,09,1.13,48.7,M,46.2,M,,*7C
$GNRMC,221040.20,A,4856.80242,N,00229.88032,E,0.007,,060721,,,A*67
$GNGGA,221040.20,4856.80242,N,00229.88032,E,1,09,1.13,48.8,M,46.2,M,,*70
$GNRMC,221040.40,A,4856.80241,N,00229.88030,E,0.098,,060721,,,A*66
$GNGGA,221040.40,4856.80241,N,00229.88030,E,1,09,1.13,48.8,M,46.2,M,,*77
$GNRMC,221040.60,A,4856.80243,N,00229.88026,E,0.193,,060721,,,A*6B
$GNGGA,221040.60,4856.80243,N,00229.88026,E,1,09,1.13,48.8,M,46.2,M,,*70
$GNRMC,221040.80,A,4856.80246,N,00229.88026,E,0.164,,060721,,,A*68
$GNGGA,221040.80,4856.80246,N,00229.88026,E,1,09,1.13,49.0,M,46.2,M,,*72
$GNRMC,221041.00,A,4856.80247,N,00229.88023,E,0.252,,060721,,,A*63
$GNGGA,221041.00,4856.80247,N,00229.88023,E,1,09,1.13,49.2,M,46.2,M,,*7D
$GNRMC,221041.20,A,4856.80247,N,00229.88022,E,0.160,,060721,,,A*62
$GNGGA,221041.20,4856.80247,N,00229.88022,E,1,09,1.13,49.2,M,46.2,M,,*7E
$GNRMC,221041.40,A,4856.80244,N,00229.88019,E,0.043,,060721,,,A*6F
$GNGGA,221041.40,4856.80244,N,00229.88019,E,1,09,1.13,49.1,M,46.2,M,,*70
$GNRMC,221041.60,A,4856.80243,N,00229.88018,E,0.038,,060721,,,A*67
$GNGGA,221041.60,4856.80243,N,00229.88018,E,1,09,1.13,49.2,M,46.2,M,,*77
$GNRMC,221041.80,A,4856.80242,N,00229.88017,E,0.081,,060721,,,A*65
$GNGGA,221041.80,4856.80242,N,00229.88017,E,1,09,1.13,49.2,M,46.2,M,,*77
$GNRMC,221042.00,A,4856.80239,N,00229.88013,E,0.040,,060721,,,A*6B
$GNGGA,221042.00,4856.80239,N,00229.88013,E,1,09,1.13,49.2,M,46.2,M,,*74
$GNRMC,221042.20,A,4856.80236,N,00229.88012,E,0.146,,060721,,,A*60
$GNGGA,221042.20,4856.80236,N,00229.88012,E,1,09,1.13,49.1,M,46.2,M,,*7B
$GNRMC,221042.40,A,4856.80235,N,00229.88012,E,0.184,,060721,,,A*6B
$GNGGA,221042.40,4856.80235,N,00229.88012,E,1,09,1.13,49.1,M,46.2,M,,*7E
$GNRMC,221042.60,A,4856.80237,N,00229.88007,E,0.267,,060721,,,A*61
$GNGGA,221042.60,4856.80237,N,00229.88007,E,1,09,1.13,49.1,M,46.2,M,,*7A
$GNRMC,221042.80,A,4856.80235,N,00229.88003,E,0.108,,060721,,,A*63
$GNGGA,221042.80,4856.80235,N,00229.88003,E,1,09,1.13,49.1,M,46.2,M,,*72
$GNRMC,221043.00,A,4856.80233,N,00229.88001,E,0.115,,060721,,,A*62
$GNGGA,221043.00,4856.80233,N,00229.88001,E,1,09,1.13,49.0,M,46.2,M,,*7E
$GNRMC,221043.20,A,4856.80236,N,00229.87999,E,0.018,,060721,,,A*6E
$GNGGA,221043.20,4856.80236,N,00229.87999,E,1,09,1.13,49.1,M,46.2,M,,*7F
$GNRMC,221043.40,A,4856.80236,N,00229.87996,E,0.148,,060721,,,A*63
$GNGGA,221043.40,4856.80236,N,00229.87996,E,1,09,1.13,49.2,M,46.2,M,,*75
$GNRMC,221043.60,A,4856.80238,N,00229.87993,E,0.146,,060721,,,A*64
$GNGGA,221043.60,4856.80238,N,00229.87993,E,1,09,1.13,49.3,M,46.2,M,,*7D
$GNRMC,221043.80,A,4856.80240,N,00229.87991,E,0.095,,060721,,,A*68
$GNGGA,221043.80,4856.80240,N,00229.87991,E,1,09,1.13,49.4,M,46.2,M,,*79
$GNRMC,221044.00,A,4856.80236,N,00229.87988,E,0.160,,060721,,,A*65
$GNGGA,221044.00,4856.80236,N,00229.87988,E,1,09,1.13,49.2,M,46.2,M,,*79
$GNRMC,221044.20,A,4856.80236,N,00229.87986,E,0.151,,060721,,,A*6B
$GNGGA,221044.20,4856.80236,N,00229.87986,E,1,09,1.13,49.3,M,46.2,M,,*74
$GNRMC,221044.40,A,4856.80237,N,00229.87982,E,0.070,,060721,,,A*6A
$GNGGA,221044.40,4856.80237,N,00229.87982,E,1,09,1.13,49.3,M,46.2,M,,*77
$GNRMC,221044.60,A,4856.80240,N,00229.87978,E,0.298,,060721,,,A*69
$GNGGA,221044.60,4856.80240,N,00229.87978,E,1,09,1.13,49.3,M,46.2,M,,*70
$GNRMC,221044.80,A,4856.80241,N,00229.87975,E,0.208,,060721,,,A*62
$GNGGA,221044.80,4856.80241,N,00229.87975,E,1,09,1.13,49.4,M,46.2,M,,*75
$GNRMC,221045.00,A,4856.80241,N,00229.87973,E,0.105,,060721,,,A*63
$GNGGA,221045.00,4856.80241,N,00229.87973,E,1,09,1.13,49.4,M,46.2,M,,*7A
$GNRMC,221045.20,A,4856.80240,N,00229.87970,E,0.179,,060721,,,A*68
$GNGGA,221045.20,4856.80240,N,00229.87970,E,1,09,1.13,49.4,M,46.2,M,,*7A
$GNRMC,221045.40,A,4856.80240,N,00229.87970,E,0.108,,060721,,,A*68
$GNGGA,221045.40,4856.80240,N,00229.87970,E,1,09,1.13,49.5,M,46.2,M,,*7D
$GNRMC,221045.60,A,4856.80237,N,00229.87968,E,0.014,,060721,,,A*6F
$GNGGA,221045.60,4856.80237,N,00229.87968,E,1,09,1.13,49.5,M,46.2,M,,*76
$GNRMC,221045.80,A,4856.80233,N,00229.87968,E,0.156,,060721,,,A*62
$GNGGA,221045.80,4856.80233,N,00229.87968,E,1,09,1.13,49.4,M,46.2,M,,*7D
$GNRMC,221046.00,A,4856.80231,N,00229.87965,E,0.090,,060721,,,A*6D
$GNGGA,221046.00,4856.80231,N,00229.87965,E,1,09,1.13,49.4,M,46.2,M,,*79
$GNRMC,221046.20,A,4856.80230,N,00229.87962,E,0.190,,060721,,,A*68
$GNGGA,221046.20,4856.80230,N,00229.87962,E,1,09,1.13,49.4,M,46.2,M,,*7D
$GNRMC,221046.40,A,4856.80228,N,00229.87960,E,0.144,,060721,,,A*6C
$GNGGA,221046.40,4856.80228,N,00229.87960,E,1,09,1.13,49.3,M,46.2,M,,*77
$GNRMC,221046.60,A,4856.80226,N,00229.87957,E,0.235,,060721,,,A*61
$GNGGA,221046.60,4856.80226,N,00229.87957,E,1,09,1.13,49.3,M,46.2,M,,*7F
$GNRMC,221046.80,A,4856.80223,N,00229.87955,E,0.153,,060721,,,A*6B
$GNGGA,221046.80,4856.80223,N,00229.87955,E,1,09,1.13,49.3,M,46.2,M,,*76
$GNRMC,221047.00,A,4856.80223,N,00229.87955,E,0.152,,060721,,,A*63
$GNGGA,221047.00,4856.80223,N,00229.87955,E,1,09,1.13,49.4,M,46.2,M,,*78
$GNRMC,221047.20,A,4856.80221,N,00229.87953,E,0.181,,060721,,,A*6B
$GNGGA,221047.20,4856.80221,N,00229.87953,E,1,09,1.13,49.4,M,46.2,M,,*7E
$GNRMC,221047.40,A,4856.80216,N,00229.87956,E,0.123,,060721,,,A*64
$GNGGA,221047.40,4856.80216,N,00229.87956,E,1,09,1.13,49.4,M,46.2,M,,*79
$GNRMC,221047.60,A,4856.80215,N,00229.87956,E,0.020,,060721,,,A*67
$GNGGA,221047.60,4856.80215,N,00229.87956,E,1,09,1.13,49.5,M,46.2,M,,*79
$GNRMC,221047.80,A,4856.80211,N,00229.87957,E,0.168,,060721,,,A*61
$GNGGA,221047.80,4856.80211,N,00229.87957,E,1,09,1.13,49.5,M,46.2,M,,*72
$GNRMC,221048.00,A,4856.80209,N,00229.87959,E,0.107,,060721,,,A*68
$GNGGA,221048.00,4856.80209,N,00229.87959,E,1,09,1.13,49.5,M,46.2,M,,*72
$GNRMC,221048.20,A,4856.80208,N,00229.87957,E,0.100,,060721,,,A*62
$GNGGA,221048.20,4856.80208,N,00229.87957,E,1,09,1.13,49.5,M,46.2,M,,*7F
$GNRMC,221048.40,A,4856.80205,N,00229.87961,E,0.071,,060721,,,A*6B
$GNGGA,221048.40,4856.80205,N,00229.87961,E,1,09,1.13,49.5,M,46.2,M,,*71
$GNRMC,221048.60,A,4856.80203,N,00229.87962,E,0.050,,060721,,,A*6F
$GNGGA,221048.60,4856.80203,N,00229.87962,E,1,09,1.13,49.5,M,46.2,M,,*76
$GNRMC,221048.80,A,4856.80198,N,00229.87961,E,0.093,,060721,,,A*6C
$GNGGA,221048.80,4856.80198,N,00229.87961,E,1,09,1.13,49.4,M,46.2,M,,*7B
$GNRMC,221049.00,A,4856.80199,N,00229.87959,E,0.188,,060721,,,A*64
$GNGGA,221049.00,4856.80199,N,00229.87959,E,1,09,1.13,49.4,M,46.2,M,,*78
$GNRMC,221049.20,A,4856.80196,N,00229.87962,E,0.086,,060721,,,A*6E
$GNGGA,221049.20,4856.80196,N,00229.87962,E,1,09,1.13,49.4,M,46.2,M,,*7D
$GNRMC,221049.40,A,4856.80194,N,00229.87958,E,0.207,,060721,,,A*68
$GNGGA,221049.40,4856.80194,N,00229.87958,E,1,09,1.13,49.3,M,46.2,M,,*77
$GNRMC,221049.60,A,4856.80194,N,00229.87959,E,0.268,,060721,,,A*62
$GNGGA,221049.60,4856.80194,N,00229.87959,E,1,09,1.13,49.2,M,46.2,M,,*75
$GNRMC,221049.80,A,4856.80190,N,00229.87958,E,0.167,,060721,,,A*65
$GNGGA,221049.80,4856.80190,N,00229.87958,E,1,09,1.13,49.2,M,46.2,M,,*7E
$GNRMC,221050.00,A,4856.80187,N,00229.87952,E,0.332,,060721,,,A*6B
$GNGGA,221050.00,4856.80187,N,00229.87952,E,1,09,1.13,49.0,M,46.2,M,,*70
$GNRMC,221050.20,A,4856.80185,N,00229.87952,E,0.305,,060721,,,A*6F
$GNGGA,221050.20,4856.80185,N,00229.87952,E,1,09,1.13,48.9,M,46.2,M,,*78
$GNRMC,221050.40,A,4856.80183,N,00229.87953,E,0.261,,060721,,,A*6D
$GNGGA,221050.40,4856.80183,N,00229.87953,E,1,09,1.13,48.9,M,46.2,M,,*79
$GNRMC,221050.60,A,4856.80181,N,00229.87953,E,0.270,,060721,,,A*6D
$GNGGA,221050.60,4856.80181,N,00229.87953,E,1,09,1.13,48.9,M,46.2,M,,*79
$GNRMC,221050.80,A,4856.80181,N,00229.87956,E,0.304,,060721,,,A*64
$GNGGA,221050.80,4856.80181,N,00229.87956,E,1,09,1.13,48.9,M,46.2,M,,*72
$GNRMC,221051.00,A,4856.80176,N,00229.87955,E,0.225,,060721,,,A*64
$GNGGA,221051.00,4856.80176,N,00229.87955,E,1,09,1.13,48.8,M,46.2,M,,*71
$GNRMC,221051.20,A,4856.80176,N,00229.87950,E,0.406,,060721,,,A*64
$GNGGA,221051.20,4856.80176,N,00229.87950,E,1,09,1.13,48.7,M,46.2,M,,*79
$GNRMC,221051.40,A,4856.80173,N,00229.87950,E,0.237,,060721,,,A*63
$GNGGA,221051.40,4856.80173,N,00229.87950,E,1,09,1.13,48.6,M,46.2,M,,*7B
$GNRMC,221051.60,A,4856.80168,N,00229.87948,E,0.239,,060721,,,A*6C
$GNGGA,221051.60,4856.80168,N,00229.87948,E,1,09,1.13,48.5,M,46.2,M,,*79
$GNRMC,221051.80,A,4856.80163,N,00229.87951,E,0.254,,060721,,,A*6A
$GNGGA,221051.80,4856.80163,N,00229.87951,E,1,09,1.13,48.5,M,46.2,M,,*74
$GNRMC,221052.00,A,4856.80160,N,00229.87952,E,0.266,,060721,,,A*60
$GNGGA,221052.00,4856.80160,N,00229.87952,E,1,09,1.13,48.5,M,46.2,M,,*7F
$GNRMC,221052.20,A,4856.80161,N,00229.87951,E,0.365,,060721,,,A*62
$GNGGA,221052.20,4856.80161,N,00229.87951,E,1,09,1.13,48.5,M,46.2,M,,*7F
$GNRMC,221052.40,A,4856.80158,N,00229.87948,E,0.375,,060721,,,A*67
$GNGGA,221052.40,4856.80158,N,00229.87948,E,1,09,1.13,48.4,M,46.2,M,,*7A
$GNRMC,221052.60,A,4856.80156,N,00229.87941,E,0.522,,060721,,,A*66
$GNGGA,221052.60,4856.80156,N,00229.87941,E,1,09,1.13,48.3,M,46.2,M,,*78
$GNRMC,221052.80,A,4856.80152,N,00229.87940,E,0.305,,060721,,,A*6E
$GNGGA,221052.80,4856.80152,N,00229.87940,E,1,09,1.13,48.2,M,46.2,M,,*72
$GNRMC,221053.00,A,4856.80149,N,00229.87940,E,0.292,,060721,,,A*62
$GNGGA,221053.00,4856.80149,N,00229.87940,E,1,09,1.13,48.2,M,46.2,M,,*71
$GNRMC,221053.20,A,4856.80148,N,00229.87946,E,0.232,,060721,,,A*6D
$GNGGA,221053.20,4856.80148,N,00229.87946,E,1,09,1.13,48.2,M,46.2,M,,*74
$GNRMC,221053.40,A,4856.80146,N,00229.87946,E,0.244,,060721,,,A*64
$GNGGA,221053.40,4856.80146,N,00229.87946,E,1,09,1.13,48.3,M,46.2,M,,*7D
$GNRMC,221053.60,A,4856.80144,N,00229.87944,E,0.316,,060721,,,A*60
$GNGGA,221053.60,4856.80144,N,00229.87944,E,1,09,1.13,48.2,M,46.2,M,,*7E
$GNRMC,221053.80,A,4856.80142,N,00229.87949,E,0.186,,060721,,,A*6E
$GNGGA,221053.80,4856.80142,N,00229.87949,E,1,09,1.13,48.2,M,46.2,M,,*7B
$GNRMC,221054.00,A,4856.80142,N,00229.87945,E,0.463,,060721,,,A*63
$GNGGA,221054.00,4856.80142,N,00229.87945,E,1,09,1.13,48.2,M,46.2,M,,*78
$GNRMC,221054.20,A,4856.80143,N,00229.87943,E,0.531,,060721,,,A*60
$GNGGA,221054.20,4856.80143,N,00229.87943,E,1,09,1.13,48.2,M,46.2,M,,*7D
$GNRMC,221054.40,A,4856.80143,N,00229.87948,E,0.381,,060721,,,A*60
$GNGGA,221054.40,4856.80143,N,00229.87948,E,1,09,1.13,48.2,M,46.2,M,,*70
$GNRMC,221054.60,A,4856.80141,N,00229.87948,E,0.316,,060721,,,A*6E
$GNGGA,221054.60,4856.80141,N,00229.87948,E,1,09,1.13,48.2,M,46.2,M,,*70
$GNRMC,221054.80,A,4856.80142,N,00229.87946,E,0.421,,060721,,,A*6E
$GNGGA,221054.80,4856.80142,N,00229.87946,E,1,09,1.13,48.2,M,46.2,M,,*73
$GNRMC,221055.00,A,4856.80139,N,00229.87946,E,0.232,,060721,,,A*6F
$GNGGA,221055.00,4856.80139,N,00229.87946,E,1,09,1.13,48.1,M,46.2,M,,*75
$GNRMC,221055.20,A,4856.80137,N,00229.87946,E,0.178,,060721,,,A*6E
$GNGGA,221055.20,4856.80137,N,00229.87946,E,1,09,1.13,48.0,M,46.2,M,,*78
$GNRMC,221055.40,A,4856.80134,N,00229.87943,E,0.252,,060721,,,A*65
$GNGGA,221055.40,4856.80134,N,00229.87943,E,1,09,1.13,47.9,M,46.2,M,,*7E
$GNRMC,221055.60,A,4856.80130,N,00229.87941,E,0.226,,060721,,,A*62
