$GNGGA,182211.80,4856.79889,N,00229.88232,E,1,12,0.64,37.4,M,46.2,M,,*70
$GNRMC,182212.00,A,4856.79891,N,00229.88228,E,0.213,,060721,,,A*66
$GNGGA,182212.00,4856.79891,N,00229.88228,E,1,12,0.64,37.4,M,46.2,M,,*79
$GNTXT,01,01,02,u-blox AG - www.u-blox.com*4E
$GNTXT,01,01,02,HW UBX-M8030 00080000*60
$GNTXT,01,01,02,ROM CORE 3.01 (107888)*2B
$GNTXT,01,01,02,FWVER=SPG 3.01*46
$GNTXT,01,01,02,PROTVER=18.00*11
$GNTXT,01,01,02,GPS;GLO;GAL;BDS*77
$GNTXT,01,01,02,SBAS;IMES;QZSS*49
$GNTXT,01,01,02,GNSS OTP=GPS;GLO*37
$GNTXT,01,01,02,LLC=FFFFFFFF-FFFFFFFF-FFFFFFFF-FFFFFFFF-FFFFFFFD*2F
$GNTXT,01,01,02,ANTSUPERV=AC SD PDoS SR*3E
$GNTXT,01,01,02,ANTSTATUS=OK*25
$GNTXT,01,01,02,PF=3FF*4B
$GNRMC,182212.20,A,4856.79893,N,00229.88226,E,0.251,,060721,,,A*6E
$GNGGA,182212.20,4856.79893,N,00229.88226,E,1,12,0.64,37.4,M,46.2,M,,*77
$GNRMC,182212.40,A,4856.79893,N,00229.88229,E,0.025,,060721,,,A*66
$GNGGA,182212.40,4856.79893,N,00229.88229,E,1,12,0.64,37.4,M,46.2,M,,*7E
$GNGGA,182212.60,4856.79894,N,00229.88228,E,1,12,0.64,37.4,M,46.2,M,,*7A
$GNRMC,182212.80,A,4856.79896,N,00229.88226,E,0.123,,060721,,,A*67
$GNGGA,182212.80,4856.79896,N,00229.88226,E,1,12,0.64,37.4,M,46.2,M,,*78
$GNRMC,182213.00,A,4856.79898,N,00229.88225,E,0.100,,060721,,,A*62
$GNGGA,182213.00,4856.79898,N,00229.88225,E,1,12,0.64,37.4,M,46.2,M,,*7C
$GNRMC,182213.20,A,4856.79900,N,00229.88223,E,0.193,,060721,,,A*6C
$GNGGA,182213.20,4856.79900,N,00229.88223,E,1,12,0.64,37.4,M,46.2,M,,*78
$GNRMC,182213.40,A,4856.79901,N,00229.88225,E,0.088,,060721,,,A*66
$GNGGA,182213.40,4856.79901,N,00229.88225,E,1,12,0.64,37.4,M,46.2,M,,*79
$GNRMC,182213.60,A,4856.79902,N,00229.88225,E,0.033,,060721,,,A*67
$GNGGA,182213.60,4856.79902,N,00229.88225,E,1,12,0.64,37.4,M,46.2,M,,*78
$GNRMC,182213.80,A,4856.79904,N,00229.88223,E,0.070,,060721,,,A*6E
$GNGGA,182213.80,4856.79904,N,00229.88223,E,1,12,0.64,37.4,M,46.2,M,,*76
$GNRMC,182214.00,A,4856.79905,N,00229.88224,E,0.022,,060721,,,A*60
$GNGGA,182214.00,4856.79905,N,00229.88224,E,1,12,0.64,37.4,M,46.2,M,,*7F
$GNRMC,182214.20,A,4856.79906,N,00229.88221,E,0.092,,060721,,,A*6F
$GNGGA,182214.20,4856.79906,N,00229.88221,E,1,12,0.64,37.5,M,46.2,M,,*7A
$GNRMC,182214.40,A,4856.79907,N,00229.88222,E,0.052,,060721,,,A*67
$GNGGA,182214.40,4856.79907,N,00229.88222,E,1,12,0.64,37.6,M,46.2,M,,*7D
$GNRMC,182214.60,A,4856.79908,N,00229.88226,E,0.217,,060721,,,A*6D
$GNGGA,182214.60,4856.79908,N,00229.88226,E,1,12,0.64,37.6,M,46.2,M,,*74
$GNRMC,182214.80,A,4856.79909,N,00229.88224,E,0.093,,060721,,,A*6E
$GNGGA,182214.80,4856.79909,N,00229.88224,E,1,12,0.64,37.6,M,46.2,M,,*79
$GNRMC,182215.00,A,4856.79911,N,00229.88221,E,0.148,,060721,,,A*6C
$GNGGA,182215.00,4856.79911,N,00229.88221,E,1,12,0.64,37.7,M,46.2,M,,*7D
$GNRMC,182215.20,A,4856.79912,N,00229.88220,E,0.070,,060721,,,A*66
$GNGGA,182215.20,4856.79912,N,00229.88220,E,1,12,0.64,37.7,M,46.2,M,,*7D
$GNRMC,182215.40,A,4856.79914,N,00229.88217,E,0.186,,060721,,,A*6A
$GNGGA,182215.40,4856.79914,N,00229.88217,E,1,12,0.64,37.8,M,46.2,M,,*76
$GNRMC,182215.60,A,4856.79917,N,00229.88209,E,0.361,,060721,,,A*6F
$GNGGA,182215.60,4856.79917,N,00229.88209,E,1,12,0.64,37.9,M,46.2,M,,*79
$GNRMC,182215.80,A,4856.79918,N,00229.88212,E,0.076,,060721,,,A*61
$GNGGA,182215.80,4856.79918,N,00229.88212,E,1,12,0.64,38.0,M,46.2,M,,*74
$GNRMC,182216.00,A,4856.79919,N,00229.88212,E,0.097,,060721,,,A*64
$GNGGA,182216.00,4856.79919,N,00229.88212,E,1,12,0.64,38.0,M,46.2,M,,*7E
$GNRMC,182216.20,A,4856.79921,N,00229.88209,E,0.218,,060721,,,A*62
$GNGGA,182216.20,4856.79921,N,00229.88209,E,1,12,0.64,38.1,M,46.2,M,,*7C
$GNRMC,182216.40,A,4856.79924,N,00229.88204,E,0.280,,060721,,,A*6D
$GNGGA,182216.40,4856.79924,N,00229.88204,E,1,12,0.68,38.1,M,46.2,M,,*7E
$GNTXT,01,01,01,PUBX 40 unknown msg*7A
$GNRMC,182216.60,A,4856.79927,N,00229.88200,E,0.236,,060721,,,A*65
$GNGGA,182216.60,4856.79927,N,00229.88200,E,1,12,0.68,38.2,M,46.2,M,,*78
$GNRMC,182216.80,A,4856.79929,N,00229.88198,E,0.233,,060721,,,A*62
$GNGGA,182216.80,4856.79929,N,00229.88198,E,1,12,0.68,38.3,M,46.2,M,,*7B
$GNRMC,182217.00,A,4856.79931,N,00229.88197,E,0.136,,060721,,,A*6B
$GNGGA,182217.00,4856.79931,N,00229.88197,E,1,12,0.68,38.3,M,46.2,M,,*74
$GNRMC,182217.20,A,4856.79932,N,00229.88197,E,0.026,,060721,,,A*6A
$GNGGA,182217.20,4856.79932,N,00229.88197,E,1,12,0.72,38.4,M,46.2,M,,*79
$GNRMC,182217.40,A,4856.79934,N,00229.88195,E,0.073,,060721,,,A*68
$GNGGA,182217.40,4856.79934,N,00229.88195,E,1,12,0.72,38.4,M,46.2,M,,*7B
$GNRMC,182217.60,A,4856.79935,N,00229.88196,E,0.113,,060721,,,A*6F
$GNGGA,182217.60,4856.79935,N,00229.88196,E,1,12,0.67,38.4,M,46.2,M,,*7F
$GNRMC,182217.80,A,4856.79937,N,00229.88193,E,0.069,,060721,,,A*6A
$GNGGA,182217.80,4856.79937,N,00229.88193,E,1,12,0.67,38.5,M,46.2,M,,*77
$GNRMC,182218.00,A,4856.79939,N,00229.88193,E,0.045,,060721,,,A*6D
$GNGGA,182218.00,4856.79939,N,00229.88193,E,1,12,0.67,38.5,M,46.2,M,,*7E
$GNRMC,182218.20,A,4856.79940,N,00229.88192,E,0.073,,060721,,,A*65
$GNGGA,182218.20,4856.79940,N,00229.88192,E,1,12,0.67,38.6,M,46.2,M,,*70
$GNRMC,182218.40,A,4856.79942,N,00229.88189,E,0.062,,060721,,,A*6B
$GNGGA,182218.40,4856.79942,N,00229.88189,E,1,12,0.67,38.7,M,46.2,M,,*7F
$GNRMC,182218.60,A,4856.79945,N,00229.88187,E,0.140,,060721,,,A*61
$GNGGA,182218.60,4856.79945,N,00229.88187,E,1,12,0.67,38.8,M,46.2,M,,*7B
$GNRMC,182218.80,A,4856.79947,N,00229.88184,E,0.197,,060721,,,A*64
$GNGGA,182218.80,4856.79947,N,00229.88184,E,1,12,0.67,38.8,M,46.2,M,,*74
$GNRMC,182219.00,A,4856.79949,N,00229.88180,E,0.214,,060721,,,A*6F
$GNGGA,182219.00,4856.79949,N,00229.88180,E,1,12,0.67,38.9,M,46.2,M,,*76
$GNRMC,182219.20,A,4856.79951,N,00229.88180,E,0.117,,060721,,,A*64
$GNGGA,182219.20,4856.79951,N,00229.88180,E,1,12,0.67,38.9,M,46.2,M,,*7D
$GNRMC,182219.40,A,4856.79953,N,00229.88180,E,0.085,,060721,,,A*6A
$GNGGA,182219.40,4856.79953,N,00229.88180,E,1,12,0.67,39.0,M,46.2,M,,*71
$GNRMC,182219.60,A,4856.79953,N,00229.88181,E,0.037,,060721,,,A*60
$GNGGA,182219.60,4856.79953,N,00229.88181,E,1,12,0.67,38.9,M,46.2,M,,*7A
$GNRMC,182219.80,A,4856.79955,N,00229.88180,E,0.068,,060721,,,A*63
$GNGGA,182219.80,4856.79955,N,00229.88180,E,1,12,0.67,39.0,M,46.2,M,,*7B
$GNRMC,182220.00,A,4856.79957,N,00229.88177,E,0.053,,060721,,,A*63
$GNGGA,182220.00,4856.79957,N,00229.88177,E,1,12,0.67,39.1,M,46.2,M,,*72
$GNRMC,182220.20,A,4856.79957,N,00229.88178,E,0.047,,060721,,,A*6B
$GNGGA,182220.20,4856.79957,N,00229.88178,E,1,12,0.67,39.1,M,46.2,M,,*7F
$GNRMC,182220.40,A,4856.79958,N,00229.88176,E,0.097,,060721,,,A*61
$GNGGA,182220.40,4856.79958,N,00229.88176,E,1,12,0.67,39.3,M,46.2,M,,*7A
$GNRMC,182220.60,A,4856.79960,N,00229.88173,E,0.072,,060721,,,A*66
$GNGGA,182220.60,4856.79960,N,00229.88173,E,1,12,0.67,39.4,M,46.2,M,,*71
$GNRMC,182220.80,A,4856.79960,N,00229.88171,E,0.021,,060721,,,A*6C
$GNGGA,182220.80,4856.79960,N,00229.88171,E,1,12,0.67,39.5,M,46.2,M,,*7C
$GNRMC,182221.00,A,4856.79961,N,00229.88170,E,0.087,,060721,,,A*69
$GNGGA,182221.00,4856.79961,N,00229.88170,E,1,12,0.67,39.5,M,46.2,M,,*75
$GNRMC,182221.20,A,4856.79961,N,00229.88169,E,0.085,,060721,,,A*61
$GNGGA,182221.20,4856.79961,N,00229.88169,E,1,12,0.67,39.6,M,46.2,M,,*7C
$GNRMC,182221.40,A,4856.79961,N,00229.88169,E,0.204,,060721,,,A*6C
$GNGGA,182221.40,4856.79961,N,00229.88169,E,1,12,0.67,39.8,M,46.2,M,,*74
$GNRMC,182221.60,A,4856.79963,N,00229.88164,E,0.127,,060721,,,A*63
$GNGGA,182221.60,4856.79963,N,00229.88164,E,1,12,0.67,39.9,M,46.2,M,,*78
$GNRMC,182221.80,A,4856.79963,N,00229.88163,E,0.040,,060721,,,A*6A
$GNGGA,182221.80,4856.79963,N,00229.88163,E,1,12,0.67,40.0,M,46.2,M,,*76
$GNRMC,182222.00,A,4856.79965,N,00229.88156,E,0.207,,060721,,,A*60
$GNGGA,182222.00,4856.79965,N,00229.88156,E,1,12,0.67,40.2,M,46.2,M,,*7F
$GNRMC,182222.20,A,4856.79965,N,00229.88154,E,0.099,,060721,,,A*65
$GNGGA,182222.20,4856.79965,N,00229.88154,E,1,12,0.70,40.3,M,46.2,M,,*78
$GNRMC,182222.40,A,4856.79968,N,00229.88150,E,0.167,,060721,,,A*6A
$GNGGA,182222.40,4856.79968,N,00229.88150,E,1,12,0.67,40.5,M,46.2,M,,*77
$GNRMC,182222.60,A,4856.79968,N,00229.88146,E,0.142,,060721,,,A*68
$GNGGA,182222.60,4856.79968,N,00229.88146,E,1,12,0.67,40.6,M,46.2,M,,*71
$GNRMC,182222.80,A,4856.79969,N,00229.88146,E,0.029,,060721,,,A*6B
$GNGGA,182222.80,4856.79969,N,00229.88146,E,1,12,0.67,40.7,M,46.2,M,,*7F
$GNRMC,182223.00,A,4856.79969,N,00229.88144,E,0.023,,060721,,,A*6A
$GNGGA,182223.00,4856.79969,N,00229.88144,E,1,12,0.67,40.7,M,46.2,M,,*74
$GNRMC,182223.20,A,4856.79971,N,00229.88142,E,0.045,,060721,,,A*67
$GNGGA,182223.20,4856.79971,N,00229.88142,E,1,12,0.67,40.8,M,46.2,M,,*76
$GNRMC,182223.40,A,4856.79972,N,00229.88140,E,0.094,,060721,,,A*6C
$GNGGA,182223.40,4856.79972,N,00229.88140,E,1,12,0.67,41.0,M,46.2,M,,*78
$GNRMC,182223.60,A,4856.79972,N,00229.88139,E,0.074,,060721,,,A*6E
$GNGGA,182223.60,4856.79972,N,00229.88139,E,1,12,0.67,41.0,M,46.2,M,,*74
$GNRMC,182223.80,A,4856.79972,N,00229.88138,E,0.090,,060721,,,A*6B
$GNGGA,182223.80,4856.79972,N,00229.88138,E,1,12,0.67,41.1,M,46.2,M,,*7A
$GNRMC,182224.00,A,4856.79973,N,00229.88136,E,0.026,,060721,,,A*66
$GNGGA,182224.00,4856.79973,N,00229.88136,E,1,12,0.67,41.2,M,46.2,M,,*79
$GNRMC,182224.20,A,4856.79974,N,00229.88134,E,0.026,,060721,,,A*61
$GNGGA,182224.20,4856.79974,N,00229.88134,E,1,12,0.67,41.3,M,46.2,M,,*7F
$GNRMC,182224.40,A,4856.79975,N,00229.88130,E,0.112,,060721,,,A*64
$GNGGA,182224.40,4856.79975,N,00229.88130,E,1,12,0.67,41.4,M,46.2,M,,*7B
$GNRMC,182224.60,A,4856.79976,N,00229.88127,E,0.048,,060721,,,A*6D
$GNGGA,182224.60,4856.79976,N,00229.88127,E,1,12,0.67,41.5,M,46.2,M,,*7D
$GNRMC,182224.80,A,4856.79977,N,00229.88126,E,0.033,,060721,,,A*6F
$GNGGA,182224.80,4856.79977,N,00229.88126,E,1,12,0.67,41.6,M,46.2,M,,*70
$GNRMC,182225.00,A,4856.79979,N,00229.88122,E,0.080,,060721,,,A*64
$GNGGA,182225.00,4856.79979,N,00229.88122,E,1,12,0.67,41.8,M,46.2,M,,*7D
$GNRMC,182225.20,A,4856.79979,N,00229.88122,E,0.018,,060721,,,A*67
$GNGGA,182225.20,4856.79979,N,00229.88122,E,1,12,0.71,41.8,M,46.2,M,,*78
$GNRMC,182225.40,A,4856.79979,N,00229.88126,E,0.289,,060721,,,A*6F
$GNGGA,182225.40,4856.79979,N,00229.88126,E,1,12,0.67,41.9,M,46.2,M,,*7C
$GNRMC,182225.60,A,4856.79981,N,00229.88123,E,0.062,,060721,,,A*68
$GNGGA,182225.60,4856.79981,N,00229.88123,E,1,12,0.67,41.9,M,46.2,M,,*7C
$GNRMC,182225.80,A,4856.79982,N,00229.88120,E,0.034,,060721,,,A*65
$GNGGA,182225.80,4856.79982,N,00229.88120,E,1,12,0.67,42.0,M,46.2,M,,*78
$GNRMC,182226.00,A,4856.79984,N,00229.88118,E,0.037,,060721,,,A*60
$GNGGA,182226.00,4856.79984,N,00229.88118,E,1,12,0.67,42.1,M,46.2,M,,*7F
$GNRMC,182226.20,A,4856.79985,N,00229.88114,E,0.082,,060721,,,A*61
$GNGGA,182226.20,4856.79985,N,00229.88114,E,1,12,0.67,42.2,M,46.2,M,,*73
$GNRMC,182226.40,A,4856.79987,N,00229.88109,E,0.114,,060721,,,A*67
$GNGGA,182226.40,4856.79987,N,00229.88109,E,1,12,0.67,42.3,M,46.2,M,,*7A
$GNRMC,182226.60,A,4856.79988,N,00229.88106,E,0.161,,060721,,,A*67
$GNGGA,182226.60,4856.79988,N,00229.88106,E,1,12,0.67,42.4,M,46.2,M,,*7F
$GNRMC,182226.80,A,4856.79990,N,00229.88103,E,0.125,,060721,,,A*65
$GNGGA,182226.80,4856.79990,N,00229.88103,E,1,12,0.67,42.5,M,46.2,M,,*7C
$GNRMC,182227.00,A,4856.79991,N,00229.88100,E,0.191,,060721,,,A*61
$GNGGA,182227.00,4856.79991,N,00229.88100,E,1,12,0.67,42.6,M,46.2,M,,*74
$GNRMC,182227.20,A,4856.79992,N,00229.88099,E,0.175,,060721,,,A*6B
$GNGGA,182227.20,4856.79992,N,00229.88099,E,1,12,0.67,42.7,M,46.2,M,,*75
$GNRMC,182227.40,A,4856.79992,N,00229.88098,E,0.112,,060721,,,A*6D
$GNGGA,182227.40,4856.79992,N,00229.88098,E,1,12,0.67,42.8,M,46.2,M,,*7D
$GNRMC,182227.60,A,4856.79993,N,00229.88095,E,0.079,,060721,,,A*6F
$GNGGA,182227.60,4856.79993,N,00229.88095,E,1,12,0.67,42.9,M,46.2,M,,*72
$GNRMC,182227.80,A,4856.79994,N,00229.88092,E,0.159,,060721,,,A*62
$GNGGA,182227.80,4856.79994,N,00229.88092,E,1,12,0.67,42.9,M,46.2,M,,*7C
$GNRMC,182228.00,A,4856.79995,N,00229.88089,E,0.170,,060721,,,A*65
$GNGGA,182228.00,4856.79995,N,00229.88089,E,1,12,0.67,43.0,M,46.2,M,,*78
$GNRMC,182228.20,A,4856.79995,N,00229.88090,E,0.099,,060721,,,A*69
$GNGGA,182228.20,4856.79995,N,00229.88090,E,1,12,0.67,43.0,M,46.2,M,,*72
$GNRMC,182228.40,A,4856.79995,N,00229.88087,E,0.080,,060721,,,A*61
$GNGGA,182228.40,4856.79995,N,00229.88087,E,1,12,0.67,43.1,M,46.2,M,,*73
$GNRMC,182228.60,A,4856.79997,N,00229.88083,E,0.170,,060721,,,A*6B
$GNGGA,182228.60,4856.79997,N,00229.88083,E,1,12,0.67,43.2,M,46.2,M,,*74
$GNRMC,182228.80,A,4856.79997,N,00229.88083,E,0.078,,060721,,,A*6C
$GNGGA,182228.80,4856.79997,N,00229.88083,E,1,12,0.67,43.2,M,46.2,M,,*7A
$GNRMC,182229.00,A,4856.79998,N,00229.88081,E,0.135,,060721,,,A*60
$GNGGA,182229.00,4856.79998,N,00229.88081,E,1,12,0.71,43.3,M,46.2,M,,*78
$GNRMC,182229.20,A,4856.79998,N,00229.88080,E,0.034,,060721,,,A*63
$GNGGA,182229.20,4856.79998,N,00229.88080,E,1,12,0.71,43.4,M,46.2,M,,*7C
$GNRMC,182229.40,A,4856.79999,N,00229.88079,E,0.014,,060721,,,A*60
$GNGGA,182229.40,4856.79999,N,00229.88079,E,1,12,0.71,43.4,M,46.2,M,,*7D
$GNRMC,182229.60,A,4856.79999,N,00229.88078,E,0.057,,060721,,,A*64
$GNGGA,182229.60,4856.79999,N,00229.88078,E,1,12,0.71,43.4,M,46.2,M,,*7E
$GNRMC,182229.80,A,4856.80001,N,00229.88076,E,0.092,,060721,,,A*63
$GNGGA,182229.80,4856.80001,N,00229.88076,E,1,12,0.71,43.5,M,46.2,M,,*71
$GNRMC,182230.00,A,4856.80002,N,00229.88075,E,0.066,,060721,,,A*68
$GNGGA,182230.00,4856.80002,N,00229.88075,E,1,12,0.71,43.6,M,46.2,M,,*72
$GNRMC,182230.20,A,4856.80002,N,00229.88072,E,0.081,,060721,,,A*64
$GNGGA,182230.20,4856.80002,N,00229.88072,E,1,12,0.71,43.6,M,46.2,M,,*77
$GNRMC,182230.40,A,4856.80003,N,00229.88071,E,0.030,,060721,,,A*6A
$GNGGA,182230.40,4856.80003,N,00229.88071,E,1,12,0.71,43.6,M,46.2,M,,*73
$GNRMC,182230.60,A,4856.80003,N,00229.88068,E,0.101,,060721,,,A*63
$GNGGA,182230.60,4856.80003,N,00229.88068,E,1,12,0.71,43.7,M,46.2,M,,*78
$GNRMC,182230.80,A,4856.80003,N,00229.88064,E,0.140,,060721,,,A*64
$GNGGA,182230.80,4856.80003,N,00229.88064,E,1,12,0.71,43.7,M,46.2,M,,*7A
$GNRMC,182231.00,A,4856.80004,N,00229.88061,E,0.039,,060721,,,A*60
$GNGGA,182231.00,4856.80004,N,00229.88061,E,1,12,0.71,43.7,M,46.2,M,,*71
$GNRMC,182231.20,A,4856.80005,N,00229.88059,E,0.051,,060721,,,A*66
$GNGGA,182231.20,4856.80005,N,00229.88059,E,1,12,0.79,43.8,M,46.2,M,,*7E
$GNRMC,182231.40,A,4856.80007,N,00229.88056,E,0.150,,060721,,,A*6D
$GNGGA,182231.40,4856.80007,N,00229.88056,E,1,12,0.74,43.8,M,46.2,M,,*78
$GNRMC,182231.60,A,4856.80007,N,00229.88058,E,0.078,,060721,,,A*6A
$GNGGA,182231.60,4856.80007,N,00229.88058,E,1,12,0.74,43.8,M,46.2,M,,*74
$GNRMC,182231.80,A,4856.80009,N,00229.88058,E,0.050,,060721,,,A*60
$GNGGA,182231.80,4856.80009,N,00229.88058,E,1,12,0.71,43.8,M,46.2,M,,*71
$GNRMC,182232.00,A,4856.80010,N,00229.88057,E,0.041,,060721,,,A*6C
$GNGGA,182232.00,4856.80010,N,00229.88057,E,1,12,0.71,43.8,M,46.2,M,,*7D
$GNRMC,182232.20,A,4856.80010,N,00229.88057,E,0.156,,060721,,,A*69
$GNGGA,182232.20,4856.80010,N,00229.88057,E,1,12,0.71,43.8,M,46.2,M,,*7F
$GNRMC,182232.40,A,4856.80010,N,00229.88052,E,0.048,,060721,,,A*64
$GNGGA,182232.40,4856.80010,N,00229.88052,E,1,12,0.71,43.8,M,46.2,M,,*7C
$GNRMC,182232.60,A,4856.80010,N,00229.88045,E,0.163,,060721,,,A*68
$GNGGA,182232.60,4856.80010,N,00229.88045,E,1,12,0.71,43.8,M,46.2,M,,*78
$GNRMC,182232.80,A,4856.80010,N,00229.88043,E,0.130,,060721,,,A*66
$GNGGA,182232.80,4856.80010,N,00229.88043,E,1,12,0.71,43.8,M,46.2,M,,*70
$GNRMC,182233.00,A,4856.80011,N,00229.88043,E,0.099,,060721,,,A*6C
$GNGGA,182233.00,4856.80011,N,00229.88043,E,1,12,0.71,43.9,M,46.2,M,,*79
$GNRMC,182233.20,A,4856.80011,N,00229.88041,E,0.108,,060721,,,A*65
$GNGGA,182233.20,4856.80011,N,00229.88041,E,1,12,0.71,43.9,M,46.2,M,,*79
$GNRMC,182233.40,A,4856.80012,N,00229.88041,E,0.073,,060721,,,A*6D
$GNGGA,182233.40,4856.80012,N,00229.88041,E,1,12,0.71,44.0,M,46.2,M,,*72
$GNRMC,182233.60,A,4856.80012,N,00229.88037,E,0.140,,060721,,,A*6F
$GNGGA,182233.60,4856.80012,N,00229.88037,E,1,12,0.71,44.0,M,46.2,M,,*71
$GNRMC,182233.80,A,4856.80010,N,00229.88034,E,0.171,,060721,,,A*62
$GNGGA,182233.80,4856.80010,N,00229.88034,E,1,12,0.71,43.9,M,46.2,M,,*70
$GNRMC,182234.00,A,4856.80011,N,00229.88034,E,0.058,,060721,,,A*66
$GNGGA,182234.00,4856.80011,N,00229.88034,E,1,12,0.71,43.9,M,46.2,M,,*7E
$GNRMC,182234.20,A,4856.80014,N,00229.88036,E,0.152,,060721,,,A*68
$GNGGA,182234.20,4856.80014,N,00229.88036,E,1,12,0.73,44.0,M,46.2,M,,*77
$GNRMC,182234.40,A,4856.80014,N,00229.88034,E,0.035,,060721,,,A*6C
$GNGGA,182234.40,4856.80014,N,00229.88034,E,1,12,0.71,44.0,M,46.2,M,,*71
$GNRMC,182234.60,A,4856.80014,N,00229.88031,E,0.087,,060721,,,A*62
$GNGGA,182234.60,4856.80014,N,00229.88031,E,1,12,0.71,44.0,M,46.2,M,,*76
$GNRMC,182234.80,A,4856.80014,N,00229.88030,E,0.107,,060721,,,A*64
$GNGGA,182234.80,4856.80014,N,00229.88030,E,1,12,0.71,44.0,M,46.2,M,,*79
$GNRMC,182235.00,A,4856.80015,N,00229.88032,E,0.015,,060721,,,A*6C
$GNGGA,182235.00,4856.80015,N,00229.88032,E,1,12,0.71,44.0,M,46.2,M,,*73
$GNRMC,182235.20,A,4856.80016,N,00229.88033,E,0.090,,060721,,,A*61
$GNGGA,182235.20,4856.80016,N,00229.88033,E,1,12,0.71,44.0,M,46.2,M,,*73
$GNRMC,182235.40,A,4856.80016,N,00229.88034,E,0.084,,060721,,,A*65
$GNGGA,182235.40,4856.80016,N,00229.88034,E,1,12,0.71,44.0,M,46.2,M,,*72
$GNRMC,182235.60,A,4856.80016,N,00229.88035,E,0.128,,060721,,,A*61
$GNGGA,182235.60,4856.80016,N,00229.88035,E,1,12,0.71,44.0,M,46.2,M,,*71
$GNRMC,182235.80,A,4856.80017,N,00229.88035,E,0.025,,060721,,,A*62
$GNGGA,182235.80,4856.80017,N,00229.88035,E,1,12,0.71,44.0,M,46.2,M,,*7E
$GNRMC,182236.00,A,4856.80015,N,00229.88032,E,0.144,,060721,,,A*6A
$GNGGA,182236.00,4856.80015,N,00229.88032,E,1,12,0.71,44.0,M,46.2,M,,*70
$GNRMC,182236.20,A,4856.80015,N,00229.88032,E,0.037,,060721,,,A*6D
$GNGGA,182236.20,4856.80015,N,00229.88032,E,1,12,0.71,44.0,M,46.2,M,,*72
$GNRMC,182236.40,A,4856.80017,N,00229.88034,E,0.037,,060721,,,A*6F
$GNGGA,182236.40,4856.80017,N,00229.88034,E,1,12,0.71,44.0,M,46.2,M,,*70
$GNRMC,182236.60,A,4856.80017,N,00229.88034,E,0.041,,060721,,,A*6C
$GNGGA,182236.60,4856.80017,N,00229.88034,E,1,12,0.71,44.0,M,46.2,M,,*72
$GNRMC,182236.80,A,4856.80016,N,00229.88033,E,0.107,,060721,,,A*67
$GNGGA,182236.80,4856.80016,N,00229.88033,E,1,12,0.71,44.1,M,46.2,M,,*7B
$GNRMC,182237.00,A,4856.80014,N,00229.88028,E,0.256,,060721,,,A*61
$GNGGA,182237.00,4856.80014,N,00229.88028,E,1,12,0.71,44.1,M,46.2,M,,*7A
$GNRMC,182237.20,A,4856.80015,N,00229.88030,E,0.127,,060721,,,A*6E
$GNGGA,182237.20,4856.80015,N,00229.88030,E,1,12,0.71,44.1,M,46.2,M,,*70
$GNRMC,182237.40,A,4856.80016,N,00229.88033,E,0.116,,060721,,,A*6A
$GNGGA,182237.40,4856.80016,N,00229.88033,E,1,12,0.71,44.2,M,46.2,M,,*75
$GNRMC,182237.60,A,4856.80015,N,00229.88031,E,0.193,,060721,,,A*64
$GNGGA,182237.60,4856.80015,N,00229.88031,E,1,12,0.71,44.2,M,46.2,M,,*76
$GNRMC,182237.80,A,4856.80014,N,00229.88032,E,0.171,,060721,,,A*64
$GNGGA,182237.80,4856.80014,N,00229.88032,E,1,12,0.71,44.2,M,46.2,M,,*7A
$GNRMC,182238.00,A,4856.80014,N,00229.88035,E,0.132,,060721,,,A*63
$GNGGA,182238.00,4856.80014,N,00229.88035,E,1,12,0.71,44.2,M,46.2,M,,*7A
$GNRMC,182238.20,A,4856.80014,N,00229.88037,E,0.172,,060721,,,A*67
$GNGGA,182238.20,4856.80014,N,00229.88037,E,1,12,0.71,44.3,M,46.2,M,,*7B
$GNRMC,182238.40,A,4856.80015,N,00229.88038,E,0.130,,060721,,,A*69
$GNGGA,182238.40,4856.80015,N,00229.88038,E,1,12,0.71,44.3,M,46.2,M,,*73
$GNRMC,182238.60,A,4856.80015,N,00229.88040,E,0.103,,060721,,,A*64
$GNGGA,182238.60,4856.80015,N,00229.88040,E,1,12,0.71,44.3,M,46.2,M,,*7E
$GNRMC,182238.80,A,4856.80016,N,00229.88040,E,0.168,,060721,,,A*64
$GNGGA,182238.80,4856.80016,N,00229.88040,E,1,12,0.71,44.4,M,46.2,M,,*74
$GNRMC,182239.00,A,4856.80017,N,00229.88043,E,0.096,,060721,,,A*6F
$GNGGA,182239.00,4856.80017,N,00229.88043,E,1,12,0.71,44.5,M,46.2,M,,*7E
$GNRMC,182239.20,A,4856.80017,N,00229.88047,E,0.086,,060721,,,A*68
$GNGGA,182239.20,4856.80017,N,00229.88047,E,1,12,0.71,44.5,M,46.2,M,,*78
$GNRMC,182239.40,A,4856.80018,N,00229.88049,E,0.113,,060721,,,A*62
$GNGGA,182239.40,4856.80018,N,00229.88049,E,1,12,0.74,44.6,M,46.2,M,,*79
$GNRMC,182239.60,A,4856.80018,N,00229.88050,E,0.060,,060721,,,A*6D
$GNGGA,182239.60,4856.80018,N,00229.88050,E,1,12,0.74,44.6,M,46.2,M,,*73
$GNRMC,182239.80,A,4856.80017,N,00229.88051,E,0.136,,060721,,,A*6F
$GNGGA,182239.80,4856.80017,N,00229.88051,E,1,12,0.74,44.7,M,46.2,M,,*72
$GNRMC,182240.00,A,4856.80016,N,00229.88051,E,0.108,,060721,,,A*65
$GNGGA,182240.00,4856.80016,N,00229.88051,E,1,12,0.74,44.7,M,46.2,M,,*75
$GNRMC,182240.20,A,4856.80016,N,00229.88052,E,0.056,,060721,,,A*6E
$GNGGA,182240.20,4856.80016,N,00229.88052,E,1,12,0.79,44.7,M,46.2,M,,*79
$GNRMC,182240.40,A,4856.80015,N,00229.88053,E,0.109,,060721,,,A*61
$GNGGA,182240.40,4856.80015,N,00229.88053,E,1,12,0.74,44.8,M,46.2,M,,*7F
$GNRMC,182240.60,A,4856.80016,N,00229.88054,E,0.087,,060721,,,A*60
$GNGGA,182240.60,4856.80016,N,00229.88054,E,1,12,0.74,44.8,M,46.2,M,,*79
$GNRMC,182240.80,A,4856.80016,N,00229.88055,E,0.054,,060721,,,A*61
$GNGGA,182240.80,4856.80016,N,00229.88055,E,1,12,0.74,44.9,M,46.2,M,,*77
$GNRMC,182241.00,A,4856.80018,N,00229.88061,E,0.195,,060721,,,A*6D
$GNGGA,182241.00,4856.80018,N,00229.88061,E,1,12,0.74,44.9,M,46.2,M,,*77
$GNRMC,182241.20,A,4856.80017,N,00229.88059,E,0.117,,060721,,,A*61
$GNGGA,182241.20,4856.80017,N,00229.88059,E,1,12,0.70,44.9,M,46.2,M,,*75
$GNRMC,182241.40,A,4856.80016,N,00229.88060,E,0.141,,060721,,,A*6F
$GNGGA,182241.40,4856.80016,N,00229.88060,E,1,12,0.70,45.0,M,46.2,M,,*70
$GNRMC,182241.60,A,4856.80016,N,00229.88061,E,0.087,,060721,,,A*67
$GNGGA,182241.60,4856.80016,N,00229.88061,E,1,12,0.70,45.0,M,46.2,M,,*73
$GNRMC,182241.80,A,4856.80018,N,00229.88063,E,0.129,,060721,,,A*60
$GNGGA,182241.80,4856.80018,N,00229.88063,E,1,12,0.67,45.1,M,46.2,M,,*76
$GNRMC,182242.00,A,4856.80017,N,00229.88060,E,0.131,,060721,,,A*6E
$GNGGA,182242.00,4856.80017,N,00229.88060,E,1,12,0.67,45.1,M,46.2,M,,*71
$GNRMC,182242.20,A,4856.80016,N,00229.88060,E,0.167,,060721,,,A*6E
$GNGGA,182242.20,4856.80016,N,00229.88060,E,1,12,0.67,45.2,M,46.2,M,,*71
$GNRMC,182242.40,A,4856.80014,N,00229.88059,E,0.219,,060721,,,A*6A
$GNGGA,182242.40,4856.80014,N,00229.88059,E,1,12,0.67,45.2,M,46.2,M,,*7F
$GNRMC,182242.60,A,4856.80011,N,00229.88055,E,0.379,,060721,,,A*66
$GNGGA,182242.60,4856.80011,N,00229.88055,E,1,12,0.67,45.2,M,46.2,M,,*74
$GNRMC,182242.80,A,4856.80014,N,00229.88060,E,0.141,,060721,,,A*62
$GNGGA,182242.80,4856.80014,N,00229.88060,E,1,12,0.67,45.3,M,46.2,M,,*78
$GNRMC,182243.00,A,4856.80017,N,00229.88065,E,0.027,,060721,,,A*6C
$GNGGA,182243.00,4856.80017,N,00229.88065,E,1,12,0.67,45.4,M,46.2,M,,*70
$GNRMC,182243.20,A,4856.80016,N,00229.88064,E,0.168,,060721,,,A*64
$GNGGA,182243.20,4856.80016,N,00229.88064,E,1,12,0.70,45.4,M,46.2,M,,*74
$GNRMC,182243.40,A,4856.80016,N,00229.88063,E,0.039,,060721,,,A*60
$GNGGA,182243.40,4856.80016,N,00229.88063,E,1,12,0.70,45.4,M,46.2,M,,*75
$GNRMC,182243.60,A,4856.80014,N,00229.88061,E,0.189,,060721,,,A*68
$GNGGA,182243.60,4856.80014,N,00229.88061,E,1,12,0.70,45.4,M,46.2,M,,*77
$GNRMC,182243.80,A,4856.80016,N,00229.88063,E,0.073,,060721,,,A*62
$GNGGA,182243.80,4856.80016,N,00229.88063,E,1,12,0.70,45.4,M,46.2,M,,*79
$GNRMC,182244.00,A,4856.80016,N,00229.88065,E,0.048,,060721,,,A*63
$GNGGA,182244.00,4856.80016,N,00229.88065,E,1,12,0.70,45.4,M,46.2,M,,*70
$GNRMC,182244.20,A,4856.80015,N,00229.88065,E,0.123,,060721,,,A*6E
$GNGGA,182244.20,4856.80015,N,00229.88065,E,1,12,0.70,45.4,M,46.2,M,,*71
$GNRMC,182244.40,A,4856.80016,N,00229.88068,E,0.097,,060721,,,A*68
$GNGGA,182244.40,4856.80016,N,00229.88068,E,1,12,0.70,45.5,M,46.2,M,,*78
$GNRMC,182244.60,A,4856.80017,N,00229.88070,E,0.130,,060721,,,A*6E
$GNGGA,182244.60,4856.80017,N,00229.88070,E,1,12,0.70,45.5,M,46.2,M,,*72
$GNRMC,182244.80,A,4856.80017,N,00229.88074,E,0.117,,060721,,,A*61
$GNGGA,182244.80,4856.80017,N,00229.88074,E,1,12,0.70,45.5,M,46.2,M,,*78
$GNRMC,182245.00,A,4856.80018,N,00229.88074,E,0.118,,060721,,,A*68
$GNGGA,182245.00,4856.80018,N,00229.88074,E,1,12,0.70,45.6,M,46.2,M,,*7D
$GNRMC,182245.20,A,4856.80018,N,00229.88076,E,0.084,,060721,,,A*6C
$GNGGA,182245.20,4856.80018,N,00229.88076,E,1,12,0.70,45.6,M,46.2,M,,*7D
$GNRMC,182245.40,A,4856.80018,N,00229.88078,E,0.095,,060721,,,A*64
$GNGGA,182245.40,4856.80018,N,00229.88078,E,1,12,0.70,45.6,M,46.2,M,,*75
$GNRMC,182245.60,A,4856.80016,N,00229.88078,E,0.135,,060721,,,A*63
$GNGGA,182245.60,4856.80016,N,00229.88078,E,1,12,0.70,45.6,M,46.2,M,,*79
$GNRMC,182245.80,A,4856.80017,N,00229.88080,E,0.069,,060721,,,A*63
$GNGGA,182245.80,4856.80017,N,00229.88080,E,1,12,0.70,45.6,M,46.2,M,,*71
$GNRMC,182246.00,A,4856.80018,N,00229.88084,E,0.122,,060721,,,A*6D
$GNGGA,182246.00,4856.80018,N,00229.88084,E,1,12,0.70,45.6,M,46.2,M,,*71
$GNRMC,182246.20,A,4856.80017,N,00229.88086,E,0.062,,060721,,,A*67
$GNGGA,182246.20,4856.80017,N,00229.88086,E,1,12,0.71,45.6,M,46.2,M,,*7F
$GNRMC,182246.40,A,4856.80018,N,00229.88086,E,0.165,,060721,,,A*68
$GNGGA,182246.40,4856.80018,N,00229.88086,E,1,12,0.71,45.6,M,46.2,M,,*76
$GNRMC,182246.60,A,4856.80016,N,00229.88086,E,0.032,,060721,,,A*67
$GNGGA,182246.60,4856.80016,N,00229.88086,E,1,12,0.71,45.6,M,46.2,M,,*7A
$GNRMC,182246.80,A,4856.80014,N,00229.88085,E,0.175,,060721,,,A*6A
$GNGGA,182246.80,4856.80014,N,00229.88085,E,1,12,0.71,45.5,M,46.2,M,,*76
$GNRMC,182247.00,A,4856.80014,N,00229.88084,E,0.120,,060721,,,A*62
$GNGGA,182247.00,4856.80014,N,00229.88084,E,1,12,0.71,45.5,M,46.2,M,,*7E
$GNRMC,182247.20,A,4856.80014,N,00229.88084,E,0.159,,060721,,,A*6E
$GNGGA,182247.20,4856.80014,N,00229.88084,E,1,12,0.71,45.5,M,46.2,M,,*7C
$GNRMC,182247.40,A,4856.80015,N,00229.88088,E,0.014,,060721,,,A*6D
$GNGGA,182247.40,4856.80015,N,00229.88088,E,1,12,0.71,45.4,M,46.2,M,,*76
$GNRMC,182247.60,A,4856.80014,N,00229.88088,E,0.075,,060721,,,A*69
$GNGGA,182247.60,4856.80014,N,00229.88088,E,1,12,0.71,45.4,M,46.2,M,,*75
$GNRMC,182247.80,A,4856.80014,N,00229.88090,E,0.072,,060721,,,A*69
$GNGGA,182247.80,4856.80014,N,00229.88090,E,1,12,0.70,45.3,M,46.2,M,,*74
$GNRMC,182248.00,A,4856.80013,N,00229.88090,E,0.037,,060721,,,A*68
$GNGGA,182248.00,4856.80013,N,00229.88090,E,1,12,0.70,45.3,M,46.2,M,,*74
$GNRMC,182248.20,A,4856.80012,N,00229.88089,E,0.187,,060721,,,A*69
$GNGGA,182248.20,4856.80012,N,00229.88089,E,1,12,0.70,45.2,M,46.2,M,,*7E
$GNRMC,182248.40,A,4856.80012,N,00229.88090,E,0.113,,060721,,,A*6A
$GNGGA,182248.40,4856.80012,N,00229.88090,E,1,12,0.70,45.1,M,46.2,M,,*73
$GNRMC,182248.60,A,4856.80012,N,00229.88092,E,0.085,,060721,,,A*64
$GNGGA,182248.60,4856.80012,N,00229.88092,E,1,12,0.70,45.1,M,46.2,M,,*73
$GNRMC,182248.80,A,4856.80014,N,00229.88094,E,0.164,,060721,,,A*64
$GNGGA,182248.80,4856.80014,N,00229.88094,E,1,12,0.70,45.1,M,46.2,M,,*7D
$GNRMC,182249.00,A,4856.80015,N,00229.88096,E,0.122,,060721,,,A*6C
$GNGGA,182249.00,4856.80015,N,00229.88096,E,1,12,0.70,45.0,M,46.2,M,,*76
$GNRMC,182249.20,A,4856.80015,N,00229.88098,E,0.053,,060721,,,A*67
$GNGGA,182249.20,4856.80015,N,00229.88098,E,1,12,0.70,45.0,M,46.2,M,,*7A
$GNRMC,182249.40,A,4856.80016,N,00229.88100,E,0.110,,060721,,,A*64
$GNGGA,182249.40,4856.80016,N,00229.88100,E,1,12,0.70,44.9,M,46.2,M,,*77
$GNRMC,182249.60,A,4856.80017,N,00229.88102,E,0.062,,060721,,,A*61
$GNGGA,182249.60,4856.80017,N,00229.88102,E,1,12,0.70,44.9,M,46.2,M,,*76
$GNRMC,182249.80,A,4856.80017,N,00229.88103,E,0.067,,060721,,,A*6B
$GNGGA,182249.80,4856.80017,N,00229.88103,E,1,12,0.70,44.9,M,46.2,M,,*79
$GNRMC,182250.00,A,4856.80016,N,00229.88104,E,0.111,,060721,,,A*6D
$GNGGA,182250.00,4856.80016,N,00229.88104,E,1,12,0.70,44.8,M,46.2,M,,*7E
$GNRMC,182250.20,A,4856.80018,N,00229.88106,E,0.105,,060721,,,A*66
$GNGGA,182250.20,4856.80018,N,00229.88106,E,1,12,0.70,44.8,M,46.2,M,,*70
$GNRMC,182250.40,A,4856.80018,N,00229.88106,E,0.042,,060721,,,A*62
$GNGGA,182250.40,4856.80018,N,00229.88106,E,1,12,0.70,44.8,M,46.2,M,,*76
$GNRMC,182250.60,A,4856.80019,N,00229.88104,E,0.212,,060721,,,A*64
$GNGGA,182250.60,4856.80019,N,00229.88104,E,1,12,0.70,44.7,M,46.2,M,,*78
$GNRMC,182250.80,A,4856.80018,N,00229.88105,E,0.125,,060721,,,A*6D
$GNGGA,182250.80,4856.80018,N,00229.88105,E,1,12,0.70,44.7,M,46.2,M,,*76
$GNRMC,182251.00,A,4856.80019,N,00229.88106,E,0.080,,060721,,,A*68
$GNGGA,182251.00,4856.80019,N,00229.88106,E,1,12,0.70,44.7,M,46.2,M,,*7D
$GNRMC,182251.20,A,4856.80019,N,00229.88107,E,0.135,,060721,,,A*64
$GNGGA,182251.20,4856.80019,N,00229.88107,E,1,12,0.70,44.6,M,46.2,M,,*7F
$GNRMC,182251.40,A,4856.80020,N,00229.88111,E,0.056,,060721,,,A*6B
$GNGGA,182251.40,4856.80020,N,00229.88111,E,1,12,0.70,44.7,M,46.2,M,,*75
$GNRMC,182251.60,A,4856.80020,N,00229.88111,E,0.075,,060721,,,A*68
$GNGGA,182251.60,4856.80020,N,00229.88111,E,1,12,0.70,44.6,M,46.2,M,,*76
$GNRMC,182251.80,A,4856.80020,N,00229.88111,E,0.041,,060721,,,A*61
$GNGGA,182251.80,4856.80020,N,00229.88111,E,1,12,0.70,44.6,M,46.2,M,,*78
$GNRMC,182252.00,A,4856.80020,N,00229.88113,E,0.020,,060721,,,A*6F
$GNGGA,182252.00,4856.80020,N,00229.88113,E,1,12,0.70,44.6,M,46.2,M,,*71
$GNRMC,182252.20,A,4856.80020,N,00229.88114,E,0.010,,060721,,,A*69
$GNGGA,182252.20,4856.80020,N,00229.88114,E,1,12,0.70,44.6,M,46.2,M,,*74
$GNRMC,182252.40,A,4856.80020,N,00229.88113,E,0.078,,060721,,,A*66
$GNGGA,182252.40,4856.80020,N,00229.88113,E,1,12,0.70,44.5,M,46.2,M,,*76
$GNRMC,182252.60,A,4856.80019,N,00229.88114,E,0.142,,060721,,,A*61
$GNGGA,182252.60,4856.80019,N,00229.88114,E,1,12,0.70,44.5,M,46.2,M,,*79
$GNRMC,182252.80,A,4856.80018,N,00229.88114,E,0.029,,060721,,,A*62
$GNGGA,182252.80,4856.80018,N,00229.88114,E,1,12,0.70,44.4,M,46.2,M,,*77
$GNRMC,182253.00,A,4856.80016,N,00229.88115,E,0.219,,060721,,,A*65
$GNGGA,182253.00,4856.80016,N,00229.88115,E,1,12,0.70,44.4,M,46.2,M,,*71
$GNRMC,182253.20,A,4856.80016,N,00229.88115,E,0.097,,060721,,,A*63
$GNGGA,182253.20,4856.80016,N,00229.88115,E,1,12,0.70,44.3,M,46.2,M,,*74
$GNRMC,182253.40,A,4856.80015,N,00229.88116,E,0.079,,060721,,,A*65
$GNGGA,182253.40,4856.80015,N,00229.88116,E,1,12,0.70,44.2,M,46.2,M,,*73
$GNRMC,182253.60,A,4856.80014,N,00229.88116,E,0.087,,060721,,,A*67
$GNGGA,182253.60,4856.80014,N,00229.88116,E,1,12,0.70,44.2,M,46.2,M,,*70
$GNRMC,182253.80,A,4856.80015,N,00229.88117,E,0.059,,060721,,,A*6A
$GNGGA,182253.80,4856.80015,N,00229.88117,E,1,12,0.70,44.1,M,46.2,M,,*7D
$GNRMC,182254.00,A,4856.80014,N,00229.88117,E,0.078,,060721,,,A*67
$GNGGA,182254.00,4856.80014,N,00229.88117,E,1,12,0.70,44.1,M,46.2,M,,*73
$GNRMC,182254.20,A,4856.80014,N,00229.88118,E,0.062,,060721,,,A*61
$GNGGA,182254.20,4856.80014,N,00229.88118,E,1,12,0.70,44.0,M,46.2,M,,*7F
$GNRMC,182254.40,A,4856.80013,N,00229.88117,E,0.185,,060721,,,A*67
$GNGGA,182254.40,4856.80013,N,00229.88117,E,1,12,0.70,43.9,M,46.2,M,,*7F
$GNRMC,182254.60,A,4856.80013,N,00229.88116,E,0.080,,060721,,,A*60
$GNGGA,182254.60,4856.80013,N,00229.88116,E,1,12,0.70,43.9,M,46.2,M,,*7C
$GNRMC,182254.80,A,4856.80013,N,00229.88117,E,0.119,,060721,,,A*6E
$GNGGA,182254.80,4856.80013,N,00229.88117,E,1,12,0.70,43.8,M,46.2,M,,*72
$GNRMC,182255.00,A,4856.80013,N,00229.88119,E,0.151,,060721,,,A*65
$GNGGA,182255.00,4856.80013,N,00229.88119,E,1,12,0.70,43.8,M,46.2,M,,*75
$GNRMC,182255.20,A,4856.80012,N,00229.88119,E,0.087,,060721,,,A*6C
$GNGGA,182255.20,4856.80012,N,00229.88119,E,1,12,0.70,43.7,M,46.2,M,,*79
$GNRMC,182255.40,A,4856.80013,N,00229.88120,E,0.085,,060721,,,A*63
$GNGGA,182255.40,4856.80013,N,00229.88120,E,1,12,0.70,43.6,M,46.2,M,,*75
$GNRMC,182255.60,A,4856.80012,N,00229.88119,E,0.139,,060721,,,A*6C
$GNGGA,182255.60,4856.80012,N,00229.88119,E,1,12,0.70,43.6,M,46.2,M,,*7C
$GNRMC,182255.80,A,4856.80012,N,00229.88119,E,0.054,,060721,,,A*68
$GNGGA,182255.80,4856.80012,N,00229.88119,E,1,12,0.70,43.6,M,46.2,M,,*72
$GNRMC,182256.00,A,4856.80013,N,00229.88121,E,0.069,,060721,,,A*67
$GNGGA,182256.00,4856.80013,N,00229.88121,E,1,12,0.70,43.5,M,46.2,M,,*70
$GNRMC,182256.20,A,4856.80013,N,00229.88122,E,0.088,,060721,,,A*69
$GNGGA,182256.20,4856.80013,N,00229.88122,E,1,12,0.70,43.5,M,46.2,M,,*71
$GNRMC,182256.40,A,4856.80013,N,00229.88123,E,0.055,,060721,,,A*6E
$GNGGA,182256.40,4856.80013,N,00229.88123,E,1,12,0.70,43.5,M,46.2,M,,*76
$GNRMC,182256.60,A,4856.80013,N,00229.88124,E,0.081,,060721,,,A*62
$GNGGA,182256.60,4856.80013,N,00229.88124,E,1,12,0.70,43.5,M,46.2,M,,*73
$GNRMC,182256.80,A,4856.80013,N,00229.88124,E,0.083,,060721,,,A*6E
$GNGGA,182256.80,4856.80013,N,00229.88124,E,1,12,0.70,43.4,M,46.2,M,,*7C
$GNRMC,182257.00,A,4856.80013,N,00229.88125,E,0.128,,060721,,,A*66
$GNGGA,182257.00,4856.80013,N,00229.88125,E,1,12,0.70,43.4,M,46.2,M,,*74
$GNRMC,182257.20,A,4856.80013,N,00229.88125,E,0.117,,060721,,,A*68
$GNGGA,182257.20,4856.80013,N,00229.88125,E,1,12,0.70,43.4,M,46.2,M,,*76
$GNRMC,182257.40,A,4856.80014,N,00229.88127,E,0.103,,060721,,,A*6E
$GNGGA,182257.40,4856.80014,N,00229.88127,E,1,12,0.70,43.4,M,46.2,M,,*75
